placekey,location_name,brands,latitude,longitude,category_tags,opened_on,closed_on
zzw-224@8g6-y3p-b6k,Marlow's Tavern,Marlow's Tavern,34.022941,-84.251834,"American Food,Bar or Pub,Casual Dining,Dinner,Drinks,Lunch",,
223-222@8g6-x6r-cnq,Sodere Ethiopian Sports Cafe & Restaurant,,33.786413,-84.230789,"Bar or Pub,Cafe,Ethiopian Food,Late Night,Sports Bar",,
zzy-223@8g7-476-ygk,Stilettos Gentlemens Club,,33.774103,-84.405997,"Bar or Pub,Cocktail Lounge,Late Night",,2020-07
22c-222@8gb-n3w-ct9,Sharky's Sports Grill,,34.615556,-83.525964,"Bar or Pub,Late Night,Sports Bar",,2020-01
zzw-222@8gj-g77-8qf,Sandtrap Club and Restaurant,,31.554213,-84.136038,"Bar or Pub,Late Night",,
22f-222@8g6-ytb-j7q,Rana,,33.960203,-84.131439,"Bar or Pub,Cocktail Lounge,Late Night",,
zzy-22s@8gd-q62-jsq,Nickies1971,,31.992774,-80.849398,"Bar or Pub,Karaoke,Late Night,Sports Bar",,
22d-222@8gd-q2n-jd9,Artillery,,32.074462,-81.093937,"Bar or Pub,Cocktail Lounge,Late Night",,
zzw-227@8g7-475-x5z,Level V Atlanta,,33.811859,-84.39352,"Bar or Pub,Cocktail Lounge,Late Night",,
223-222@8gj-g7q-6rk,Mel's Bar,,31.576521,-84.184585,"Bar or Pub,Late Night",,2020-01
zzw-225@8g7-njj-33q,Sake Mama,,33.958063,-83.376148,"Bar or Pub,Late Night",,
224-222@8g7-3z3-h5z,Jr's Lounge,,33.760572,-84.505356,"Bar or Pub,Cocktail Lounge,Late Night",,
225-222@8g8-7q5-v75,Shanty Shack,,32.522262,-84.91768,"Bar or Pub,Late Night,Sports Bar",,2020-01
zzw-222@8g7-84m-87q,Robbie's Sports Bar,,33.509422,-82.032778,"Late Night,Pool and Billiards",,2020-02
224-222@8gd-q2q-c5z,SEED Eco Lounge,,32.08055,-81.096289,"Bar or Pub,Cocktail Lounge,Late Night",,2020-01
222-223@8g6-yjj-8jv,Sol Lounge,,33.865016,-84.30505,"Bar or Pub,Cocktail Lounge,Late Night",,2022-12
zzy-222@8gd-q26-ct9,Kiosk Bar,,32.135693,-81.209678,"Bar or Pub,Cocktail Lounge,Late Night",,
zzw-222@8g7-3dz-fvf,Tara Billiards,,33.492616,-84.339243,"Late Night,Pool and Billiards",,2020-01
22c-223@8gd-q7b-92k,Cocoa's Dessert Martini Bar,,32.013838,-80.985981,"Bar or Pub,Late Night",,2020-01
zzw-224@8gm-g9h-vvf,Boss Cigars,,33.564437,-85.076347,"Bar or Pub,Cigars,Late Night",,
222-223@8gd-pwy-mtv,Doubles Night Club,,32.011235,-81.112851,"Dance Club,Late Night",,2021-10
24j-222@8g7-47b-gtv,The Living Room at the W Downtown,,33.765128,-84.389209,"Bar or Pub,Cocktail Lounge,Late Night",,
227-222@8g7-3nn-f2k,Nic & Norman's,,33.300527,-84.554546,"Bar or Pub,Burgers,Cocktail Lounge,Dessert,Late Night",,
zzw-222@8gj-g6r-z75,The Cask and Kilt,,31.614993,-84.219351,"Bar or Pub,Late Night",,2020-01
222-222@8g7-48t-9zz,Peaches Of Atlanta,,33.738427,-84.413177,"Adult Entertainment,Late Night",,
22g-224@8g7-474-hnq,Tap,,33.786944,-84.383528,"American Food,Bar or Pub,Late Night,Sandwich Shop",,
222-223@8g7-46m-h89,SkyLounge,,33.757067,-84.393076,"Bar or Pub,Cocktail Lounge,Late Night",,
223-222@8g7-njg-9vf,Magnolias Bar of Athens,,33.957615,-83.374062,"Bar or Pub,Cocktail Lounge,Late Night",,
22q-222@8gj-6tt-d5f,The Bleu Cafe,,30.831605,-83.278971,"Bar or Pub,Cafe,Cocktail Lounge,Late Night",,2021-10
222-224@8g7-479-zs5,Lobby Bar,,33.776381,-84.389271,"Bar or Pub,Cocktail Lounge,Late Night,Wine Bar",,
224-223@8g8-7mw-8y9,Soho Bar & Grill,,32.523478,-84.888769,"Bar or Pub,Late Night,Music Venue",,
222-222@8g7-48k-3dv,Pyramids Lounge BAR,,33.679173,-84.440577,"Bar or Pub,Cocktail Lounge,Hookah,Late Night",,
zzy-222@8g7-37q-4vz,Groovy Blues,,33.424627,-84.182969,"Bar or Pub,Cigars,Late Night",,
223-222@8g7-46w-wx5,Driftwood Drive In,,33.711798,-84.350034,"Bar or Pub,Late Night,Sports Bar",,2022-12
223-222@8g7-4pp-rhq,Nouveau Bar & Grill,,33.65238,-84.449821,"Bar or Pub,Cocktail Lounge,Karaoke,Late Night",,
zzw-222@8g8-d7d-7dv,St Somewhere Chill and Grill Company,,32.108671,-82.121064,"Bar or Pub,Late Night",,
zzw-222@8gb-262-2rk,Dalton Golf & Country Club,,34.804293,-84.953885,,,
23s-222@8g7-njn-dd9,Boar's Head Lounge,,33.959145,-83.374971,"Bar or Pub,Cocktail Lounge,Dive Bar,Late Night",,
222-222@8gj-g7s-8y9,Big Daddy's Lounge & Club,,31.5764,-84.142101,Late Night,,
222-222@8g7-bgd-8gk,Rack & Grill II,,33.360261,-81.990685,"Bar or Pub,Late Night,Pool and Billiards,Sports Bar",,
224-222@8g7-47y-6hq,Brew and Bird,,33.792245,-84.304978,"Bar or Pub,Chicken Wings,Late Night",,
zzw-222@8g6-y3b-hnq,Wake Me Up Wine Me Down,,34.066566,-84.306771,"Bar or Pub,Cigars,Hookah,Late Night,Wine Bar",,2023-01
22k-222@8g7-474-dn5,Mixx Atlanta,,33.795887,-84.370968,"Bar or Pub,Cocktail Lounge,Late Night",,
223-222@8g6-ymt-6rk,Naughty's Emporium,,33.853502,-84.316185,Late Night,,2020-01
222-223@8g6-y4q-7yv,Gypsy Rose,,34.024904,-84.360833,"Bar or Pub,Cocktail Lounge,Late Night,Music Venue,Truck or Cart",,2021-10
223-222@8g6-qcr-kxq,The Stadium Bar and Grill,,32.935794,-82.811124,"Bar or Pub,Late Night,Sports Bar",,2020-01
zzy-22b@8g7-47b-k9f,Red Phone Booth,,33.759567,-84.386903,"Bar or Pub,Cigars,Cocktail Lounge,Late Night",,
zzy-223@8gb-p6x-q75,Grapes & Beans,,34.878103,-83.400195,"American Food,Bar or Pub,Coffee Shop,Late Night,Wine Bar",,
222-222@8g7-2r7-ghq,Pat's Tavern,,33.960476,-83.719572,Late Night,,2020-01
zzw-223@8g7-479-qzz,The Marquee Club,,33.772744,-84.385168,"Bar or Pub,Cocktail Lounge,Late Night",,
zzw-223@8g6-x94-6c5,Thinking Man Tavern,,33.767875,-84.30455,"Bar or Pub,Late Night",,
zzw-222@8gb-54n-rrk,The Foundry Growler Bar,,34.257953,-85.173581,"Bar or Pub,Brewing Supplies,Late Night,Wine Bar",,
22b-222@8g6-t89-3nq,The Mill Macon,,32.835398,-83.626135,"Bar or Pub,Dance Club,Late Night",,2021-10
222-222@8gj-gh8-nbk,The Ozone Lounge,,31.58562,-84.081344,"Bar or Pub,Cocktail Lounge,Late Night",,2021-11
227-223@8gd-q2q-8qf,Liquid,,32.082797,-81.094455,"Dance Club,Late Night",,2021-10
222-223@8g7-46n-8d9,Magic City Kitchen,,33.74825,-84.397302,"Adult Entertainment,American Food,BBQ and Southern Food,Late Night,Seafood",,
zzw-225@8gd-qbh-yqf,The Parlor,,32.043177,-81.071626,"Bar or Pub,Late Night",,
zzw-223@8gd-q2n-kvf,VICE Lounge Mojito Bar,,32.079117,-81.093653,"Bar or Pub,Dance Club,Late Night",,
zzw-223@8g8-4h9-qpv,Robins Package,,32.598961,-83.670988,"Bar or Pub,Cigars,Late Night",,
zzw-224@8g6-ysk-6c5,Gang Nam Karaoke,,33.975528,-84.158184,"Bar or Pub,Karaoke,Late Night",,
223-222@8g6-yk6-psq,Mr Cue's Billiards II,,33.884389,-84.248375,"Bar or Pub,Late Night,Pool and Billiards",,
224-222@8g7-475-x5z,Elleven45 Lounge,,33.812104,-84.392668,"Bar or Pub,Cocktail Lounge,Hookah,Late Night,Tapas",,
zzy-222@8gq-3j4-wrk,The Bloody Bucket Bar,,30.837399,-81.563353,"Bar or Pub,Late Night",,
zzw-229@8g7-46z-6p9,14th Street Bar,,33.785883,-84.388029,"Bar or Pub,Late Night,Wine Bar",,
zzw-222@8g7-bfw-k4v,Bar 111,,33.478043,-81.974548,"Bar or Pub,Late Night",,
227-222@8gd-q2v-mhq,Starland Yard,,32.054518,-81.10196,"Beer Garden,Late Night,Pizza,Truck or Cart",,
223-222@8g8-5vw-xbk,D's Rabbit Box,,32.92215,-84.333241,"Bar or Pub,Dive Bar,Late Night",,2020-01
223-223@8g8-4h8-kfz,Game On Sports Cafe,,32.61502,-83.698881,"Bar or Pub,Late Night,Sports Bar",,
zzw-223@8g6-ymg-jy9,Paradise Lounge,,33.891211,-84.381717,"Bar or Pub,Cocktail Lounge,Hookah,Late Night",,
zzw-223@8g6-x98-3wk,The Cigar Bar,,33.713031,-84.167307,"Bar or Pub,Hookah,Late Night,Tapas",,
224-222@8gd-q2w-b6k,The Florence,,32.052328,-81.103767,"Bar or Pub,Cocktail Lounge,Coffee Shop,Italian Food,Late Night",,2020-07
222-224@8g7-njn-k2k,The Foundry,,33.963733,-83.374613,"American Food,Bar or Pub,Late Night,Music Venue",,
zzw-222@8g6-ykt-33q,Gib's Restaurant Martini Bar & Lounge,,33.908844,-84.265386,"Bar or Pub,Cocktail Lounge,Jazz and Blues,Late Night,Music Venue,Sushi",,
zzw-224@8g7-485-49z,Miracle on Monroe,,33.778876,-84.367161,"Bar or Pub,Cocktail Lounge,Late Night",,2022-08
zzw-227@8g6-ykk-v75,L T Magoos's Bar & Grill,,33.941922,-84.269684,Late Night,,
zzw-222@8g6-ys3-575,Viva Billiard Cafe,,33.90778,-84.155304,"Late Night,Pool and Billiards",,
226-223@8g7-4cj-2x5,Taps At Ph'east,,33.887238,-84.470736,"Bar or Pub,Cocktail Lounge,Late Night",,
222-222@8gb-prw-q2k,Smiley's Tavern,,34.53444,-83.974514,"Bar or Pub,Late Night,Sports Bar",,2020-01
224-222@8g6-yps-mff,Morgan Falls Billiards,,33.972198,-84.357457,"Late Night,Pool and Billiards",,
zzw-223@8g7-njn-dd9,Moonshine Bar,,33.958891,-83.37487,"Bar or Pub,Dive Bar,Late Night",,
228-222@8gd-q2q-btv,Tree House,,32.080753,-81.095423,"Bar or Pub,Late Night,Music Venue",,
zzy-222@8gb-kzd-28v,Nottely Lakeside,,34.906209,-84.080968,"Late Night,Pool and Billiards",,
226-222@8g6-y56-7t9,Colony Club,,33.991954,-84.267197,Late Night,,
222-223@8g7-475-x5z,Smoke City Atl,,33.811904,-84.393353,"Bar or Pub,Hookah,Late Night",,
zzw-222@8g6-yvs-yy9,Will Henry's Tavern,,33.841667,-84.131088,"Bar or Pub,Late Night",,
222-222@8g7-472-mzf,Tiffanys,,33.801801,-84.407168,Late Night,,
227-222@8gb-qhg-v2k,Treo Blue Ridge,,34.866957,-84.323253,"American Food,Bar or Pub,Late Night,Wine Bar",,2021-10
zzw-223@8g7-46m-wx5,224 Cafe,,33.755686,-84.379339,"African Food,Bar or Pub,Cafe,Cocktail Lounge,Late Night",,
222-222@8g6-yjh-wtv,Follies,,33.861961,-84.306612,"Adult Entertainment,Late Night",,2021-11
222-222@8gj-6tq-3dv,Maria's Restaurant & Lounge,,30.8599,-83.255925,"Bar or Pub,Cocktail Lounge,Late Night",,2020-01
zzw-223@8gn-jch-p7q,CIRCA Craft Cocktails Lounge,,32.463082,-84.994282,"Bar or Pub,Cocktail Lounge,Late Night",,
225-222@8g7-nmr-nkf,The Office Lounge,,33.972475,-83.416279,"Bar or Pub,Cocktail Lounge,Late Night",,2020-01
zzw-222@8g7-4qy-789,50 Yard Line Sports Bar & Grill,,33.55345,-84.465328,"Bar or Pub,Late Night,Sports Bar",,
225-222@8g7-84x-k75,Surrey Tavern,,33.486365,-82.030873,"Bar or Pub,Late Night",,2020-01
222-222@8gm-jr5-wc5,Chalk It Up Billiards,,33.029342,-85.069984,"Late Night,Pool and Billiards",,2022-05
226-222@8g6-ymy-qxq,Maggie's Neighborhood Bar & Grill,,33.814717,-84.312233,"Bar or Pub,Late Night",,
223-223@8gd-h53-swk,Doodles Billiards,,32.270042,-81.224035,"Bar or Pub,Chicken Wings,Late Night,Pool and Billiards",,
zzw-222@8g7-86j-fzz,Club Velvet,,33.444877,-82.092655,"Bar or Pub,Dance Club,Late Night",,
22f-222@8gb-7gv-3t9,SuBourbon Bar & Social Club,,34.019833,-84.61337,"Bar or Pub,Cocktail Lounge,Late Night,Music Venue,Seafood",,
222-222@8g6-ytb-j5f,Han Shin Pocha,,33.959617,-84.130301,"Fine Dining,Karaoke,Korean Food,Late Night",,
224-222@8g6-ym3-v4v,Bucket Shop Cafe,,33.849366,-84.360841,"Bar or Pub,Burgers,Cafe,Cocktail Lounge,Late Night",,
224-222@8g6-t7t-qzz,Rivalry's Sports Bar Grill,,32.898004,-83.702063,"Bar or Pub,Late Night,Sports Bar",,2020-01
zzw-226@8g8-7tz-zj9,H2o,,32.538657,-84.955799,"Dance Club,Late Night",,
243-222@8g7-474-mff,Saltwood Charcuterie & Bar,,33.783239,-84.383155,"American Food,Bar or Pub,Brunch,Cocktail Lounge,Late Night,Smoothie & Juice Bar,Tapas",,
223-222@8g7-37w-73q,Sports Bar 81,,33.427202,-84.183957,"Bar or Pub,Late Night,Sports Bar",,2020-01
zzw-235@8g6-ykx-cyv,Azule Restaurant and Lounge,,33.826287,-84.36621,"Bar or Pub,Cocktail Lounge,Late Night",,2022-07
zzw-225@8g6-ymh-fxq,The Chapter Room,,33.908564,-84.379043,"American Food,Bar or Pub,Late Night",,
223-223@8g6-x93-fxq,Victory Sandwich Bar,,33.774215,-84.295153,"Bar or Pub,Late Night",,
22b-222@8gj-6tw-g6k,Southern Growlers Home of Craft Beers,,30.846682,-83.30794,"Bar or Pub,Late Night",,2020-01
222-222@8g6-t5m-nt9,2O's Pub & Subs,,32.889819,-83.678403,"Bar or Pub,Karaoke,Late Night",,
22j-222@8g6-y5g-grk,Xclusive Hookah Lounge,,33.956075,-84.233577,"Bar or Pub,Hookah,Late Night",,2021-11
zzw-226@8gd-pyh-49z,Dew Drop Inn,,31.982093,-81.147776,"Bar or Pub,Dive Bar,Late Night",,
zzw-222@8g6-y4x-btv,The Mill Kitchen and Bar,,34.014766,-84.363919,"American Food,BBQ and Southern Food",,
223-222@8gd-q62-jy9,Doc's Bar,,31.992271,-80.848116,"Bar or Pub,Late Night",,
223-222@8g7-474-hyv,Koo Koo Room,,33.785839,-84.38447,"Bar or Pub,Cocktail Lounge,Dance Club,Late Night",,
222-22c@8g7-46q-n5z,Lingering Shade Social Club,,33.757845,-84.365049,"Bar or Pub,Late Night",,
zzw-222@8gp-wpc-dsq,Vfw,,31.614538,-81.883604,"Bar or Pub,Late Night",,
222-222@8g6-ym4-yn5,Jungle Atlanta,,33.812814,-84.356911,"American Food,Bar or Pub,Dance Club,Gay Bar,Late Night",,2020-01
22f-222@8gd-q2q-8qf,Bar Crawl Savannah,,32.082618,-81.094489,Late Night,,
222-222@8g6-xhs-xqz,78 Degrees,,33.825718,-84.101154,"Bar or Pub,Hookah,Late Night,Tapas",,2023-01
223-224@8g6-yjn-wc5,The Bar,,33.929427,-84.35673,"Bar or Pub,Late Night",,
223-222@8g7-4qb-bc5,The Gate,,33.576909,-84.37207,"Dance Club,Late Night",,2020-01
222-222@8gb-7gh-hdv,Social House Hookah Lounge,,33.978223,-84.557526,"Bar or Pub,Hookah,Late Night",,2022-07
223-222@8g7-474-mc5,Deadwood Saloon,,33.784766,-84.385471,"Bar or Pub,Late Night",,2020-01
222-223@8g6-x77-gtv,Remy Cafe Lounge,,33.835981,-84.199843,"Bar or Pub,Cafe,Hookah,Late Night",,2020-08
225-222@8g7-477-4gk,Encore Hookah Bar & Bistro,,33.763224,-84.396395,"Bar or Pub,Hookah,Late Night",,2022-06
zzw-223@8gd-pzr-v2k,Blueberry Hill Bar and Grill,,32.078312,-81.195188,"Bar or Pub,Late Night",,
zzw-222@8g6-x8f-975,Club Tasteful,,33.739294,-84.256088,Late Night,,
224-222@8g6-yqm-7dv,Hoyle's Kitchen Bar,,33.950157,-84.509851,"Bar or Pub,Late Night,Sports Bar",,2022-12
zzw-222@8g6-y4b-xkf,North River Tavern,,34.00108,-84.349826,"Bar or Pub,Chicken Wings,Dive Bar,Event Planning,Late Night",,
zzw-222@8g6-x7f-yd9,Calabash Lounge,,33.799255,-84.210321,"Bar or Pub,Cocktail Lounge,Late Night",,2020-01
zzw-224@8g7-4rh-ygk,Crowe's Nest Megaplex,,33.606393,-84.473782,"Bar or Pub,Late Night,Sports Bar",,
zzw-225@8g6-yjf-2hq,Smash Kitchen & Bar,,33.870702,-84.336567,"American Food,Bar or Pub,Cocktail Lounge,Late Night",,2020-01
zzw-222@8g8-7n8-j9z,Hideaway Lounge,,32.55321,-84.897217,"Bar or Pub,Cocktail Lounge,Karaoke,Late Night",,
22c-222@8gd-qbw-35z,Jen's and Friends,,32.079361,-81.091588,"Bar or Pub,Late Night",,
zzw-222@8g6-yn2-75z,Pure Lounge,,33.82769,-84.326289,"Bar or Pub,Cafe,Cocktail Lounge,Hookah,Late Night",,
223-223@8g7-bf7-kpv,Silver Bullet Lounge,,33.447222,-82.013524,Late Night,,2020-01
223-222@8g6-x3z-n5z,Smokey Bones,Smokey Bones,33.699214,-84.089749,"American Food,Burgers,Catering,Dinner,Late Night,Lunch,Steak House",,
224-222@8g7-484-w6k,Deep End,,33.770857,-84.366985,"Arcades,Bar or Pub,Cocktail Lounge,Dive Bar,Late Night",,2020-01
223-223@8g7-84h-8jv,The Clubhouse at Jones Creek,,33.552209,-82.106987,"American Food,Bar or Pub,Cocktail Lounge,Late Night,Sandwich Shop",,
229-222@8g7-4bf-w49,Murph's Lounge,,33.91157,-84.54459,"Bar or Pub,Cocktail Lounge,Late Night",,2021-11
224-222@8g6-ym4-ygk,Little Wings Social Club,,33.813037,-84.357715,Late Night,,2020-01
zzw-222@8g6-ysk-6p9,Station Karoke Night Club,,33.975556,-84.158614,"Arcades,Karaoke,Late Night",,2022-06
22h-222@8g7-46r-4d9,Milltown Arms Tavern,,33.749652,-84.36791,"Bar or Pub,Late Night",,
zzw-223@8gm-drr-jy9,Alamo Jacks,,33.375091,-84.800626,"Bar or Pub,Late Night",,
zzy-222@8g7-226-tn5,Shuffle's Bar,,33.993449,-83.749027,"Bar or Pub,Late Night",,2021-10
222-222@8g6-ykz-6p9,Buckhead Saloon,,33.843162,-84.378688,"American Food,Bar or Pub,Late Night,Sports Bar",,
zzw-222@8g7-488-q2k,GOLDRUSH Showbar,,33.68382,-84.407239,"Adult Entertainment,Late Night",,
222-222@8g7-46v-35z,Speakeasy Lounge,,33.722337,-84.399448,"Bar or Pub,Late Night",,
227-222@8g7-474-dn5,Oscar's Atlanta,,33.796432,-84.370799,"Bar or Pub,Gay Bar,Late Night",,
227-222@8g7-46r-47q,Bar One,,33.746516,-84.364951,"Bar or Pub,Cocktail Lounge,Late Night,Tapas",,2020-01
222-223@8g6-y4w-jn5,BD Metrics,,34.020799,-84.361193,"Bar or Pub,Late Night",,
22f-222@8gm-jp3-cdv,Main Street Pub,,33.038154,-85.031401,"Bar or Pub,Late Night,Sports Bar",,
zzw-222@8gm-gb3-z9f,TenTwentyTwo Restaurant & Lounge,,33.572693,-85.088437,"Bar or Pub,Cocktail Lounge,Hookah,Late Night,Seafood",,2022-10
22p-222@8gb-6zv-j9z,Kennesaw Billiards,,34.042047,-84.601666,"Bar or Pub,Late Night,Pool and Billiards,Sports Bar",,
222-224@8gm-kh8-g6k,Cason's Tap Room,,32.848134,-84.85383,"Bar or Pub,Late Night",,
223-222@8g7-479-q9f,Midtown Tavern,,33.769728,-84.382261,"Bar or Pub,Karaoke,Late Night,Sports Bar",,2021-10
22k-222@8g6-t85-r6k,Reboot Retrocade & Bar,,32.836093,-83.628723,"Arcades,Bar or Pub,Late Night",,
zzw-222@8gb-7gc-4d9,Lumiere Lounge,,33.953584,-84.549164,"Bar or Pub,Cocktail Lounge,Late Night",,
222-222@8gj-6t3-5fz,Bad Habitz Saloon And Grub,,30.842594,-83.323742,"Bar or Pub,Late Night",,2020-01
zzw-222@8gb-mgm-2ff,The Station Bar And Grill,,34.577363,-83.336336,Late Night,,
222-222@8g6-q27-qvf,Duke's Lounge & Dog House,,33.179403,-83.275452,"Bar or Pub,Cocktail Lounge,Late Night",,
zzw-226@8g7-479-y7q,Bulldog's,,33.778994,-84.38403,"Bar or Pub,Gay Bar,Late Night",,
222-222@8g6-yd5-r6k,Marlow's Tavern,Marlow's Tavern,33.990726,-84.086136,"American Food,Bar or Pub,Casual Dining,Dinner,Drinks,Lunch",,
22w-222@8gd-q2v-mhq,Say Hey's & Mary,,32.053724,-81.101854,"Bar or Pub,Cocktail Lounge,Late Night,Sports Bar",,
223-222@8g6-ytk-vj9,Arena,,33.963463,-84.141948,"Bar or Pub,Coffee Shop,Late Night",,
223-223@8g6-yk4-rzf,Happy Karaoke,,33.899941,-84.27726,"Bar or Pub,Karaoke,Korean Food,Late Night",,
27k-222@8g7-46p-rhq,Vesper,,33.740733,-84.357876,"Bar or Pub,Cocktail Lounge,Late Night,Tapas",,
224-223@8g6-xrc-xt9,G Street Sports Bar & Lounge,,33.551601,-84.258654,"Bar or Pub,Cocktail Lounge,Hookah,Late Night",,2020-01
222-224@8g7-472-mzf,Dream's Gentlemen's Club,,33.801782,-84.407207,Late Night,,
222-223@8g6-yf2-gkz,Kobe Steak And Sushi Bar,,34.145095,-84.249793,"Japanese Food,Steak House,Sushi",,2022-03
227-222@8gb-6qw-66k,BRIX On Main,,34.066076,-84.678121,"Bar or Pub,Late Night,Tapas,Wine Bar",,2021-10
224-222@8g7-453-kmk,Tubby's Tavern,,33.746994,-84.700429,"Bar or Pub,Late Night",,2020-01
223-223@8g6-ytk-n89,Champion Billiard,,33.956386,-84.140366,"Late Night,Pool and Billiards",,
22b-223@8g7-njj-33q,The Loft,,33.958102,-83.376212,"Dance Club,Late Night",,2021-10
224-222@8g6-ymt-yvz,XS Restaurant & Lounge,,33.841392,-84.325207,"Bar or Pub,Cocktail Lounge,Fine Dining,Late Night",,2021-10
22y-222@8gd-q2n-m49,Octane Bar,,32.079792,-81.093078,"Bar or Pub,Cocktail Lounge,Late Night",,
zzw-222@8g7-3xy-gp9,Bella A Baltimore Crab & Seafood Company,,33.66686,-84.549195,"American Food,Bar or Pub,Brunch,Cocktail Lounge,Late Night",,
zzy-222@8gd-q2n-kj9,The Wayward,,32.074955,-81.091611,"Bar or Pub,Late Night",,
zzw-223@8g6-y3b-5cq,Salt Factory Pub,,34.072459,-84.295193,Bar or Pub,,
22f-222@8g7-bfw-j9z,Blue Sky Kitchen,,33.476341,-81.969703,"Bar or Pub,Late Night,Sports Bar",,2020-01
228-222@8g7-njj-2kz,Copper Creek Brewing,,33.958767,-83.376643,"Bar or Pub,Brewery or Brewpub,Late Night",,2020-01
224-222@8g7-479-x89,Alibi Lounge,,33.780797,-84.389263,"Bar or Pub,Dance Club,Hookah,Late Night",,2022-10
233-222@8gd-q2n-kxq,Jazz'd Tapas Bar,,32.079765,-81.093866,Tapas,,
223-222@8gd-qbw-435,The Oyster Bar,,32.080544,-81.086073,"Bar or Pub,Late Night",,2020-01
222-223@8gd-n7m-3qz,Jt's Pub & Grill,,32.004916,-81.285677,"Bar or Pub,Late Night,Sports Bar",,2020-01
225-222@8gm-g9s-hnq,Tc Rose,,33.586648,-85.099164,"Bar or Pub,Late Night",,
zzy-223@8gd-hvc-dd9,Angel's Sunset Island,,32.197614,-81.196063,"American Food,Karaoke,Late Night",,2022-10
zzy-222@8gp-ybv-d7q,GameTime Sports Bar,,31.843727,-81.254758,"Bar or Pub,Burgers,Chicken Wings,Late Night,Sports Bar",,
224-222@8gd-nhs-hwk,Big Apple,,31.851727,-81.583322,Late Night,,2020-01
232-224@8g7-njh-zfz,Five Bar,,33.957996,-83.378705,"American Food,Bar or Pub,Late Night,Salad",,
222-222@8gj-gm8-87q,Temp Coffee and Brew,,31.641757,-84.175846,"Bar or Pub,Coffee Shop,Late Night",,
222-222@8gn-jcg-bp9,Foxy Lady,,32.437678,-84.959629,Late Night,,
zzw-222@8g7-46m-x89,The Hookah Hideaway,,33.755811,-84.380077,"Bar or Pub,Hookah,Late Night",,2020-01
zzw-222@8g7-2zs-yjv,Sticks Pool Room,,33.381934,-84.300014,"Late Night,Pool and Billiards",,2020-08
zzw-222@8g7-4q3-kzz,Jazz Cafe,,33.570976,-84.350396,"Dance Club,Fine Dining,Jazz and Blues,Late Night",,2020-01
zzw-222@8g7-46p-rhq,3 Parks Wine Shop,,33.741148,-84.35833,"Bar or Pub,Late Night,Tasting Classes,Wine Bar",,
zzw-22j@8g6-yjy-2hq,The Pub Perimeter,,33.923907,-84.339806,"Bar or Pub,Late Night",,2020-01
zzy-222@8g6-ykz-bhq,Willow Bar,,33.839306,-84.375005,"Bar or Pub,Late Night",,
zzw-222@8g6-yqd-g6k,Beer Barrel,,33.950519,-84.514292,"Bar or Pub,Dive Bar,Late Night",,
224-222@8gb-px9-8n5,Gasthaus Tirol,,34.201247,-84.134063,"Beer Garden,German Food,Late Night,Salad",,
228-222@8gj-4rq-ct9,Hill Street Club,,30.781421,-83.568879,Late Night,,
224-222@8g8-7nh-cqz,The Dawg House,,32.535037,-84.905707,"Bar or Pub,Dive Bar,Late Night,Sports Bar",,
zzw-226@8g6-y4q-5pv,Cafe Lucia,,34.030973,-84.36163,"Bar or Pub,Brunch,Coffee Shop,Late Night",,2021-10
227-223@8g7-bfw-jy9,Garden City Social,,33.478112,-81.972173,"Bar or Pub,Dance Club,Late Night",,
zzw-222@8gh-nxw-z9f,Donalsonville Country Club,,30.972006,-84.876279,Country Club,,
2bm-223@8g7-475-td9,Ibiza Restaurant and Lounge,,33.816367,-84.389558,"Bar or Pub,Cocktail Lounge,Late Night,Tapas",,
zzw-226@8g7-47b-mhq,Pulse Bar,,33.761484,-84.385651,"Bar or Pub,Cocktail Lounge,Late Night",,
223-222@8gd-q7b-7bk,Britannia Pub,,32.016482,-80.987362,"Bar or Pub,Fine Dining,Late Night",,
222-222@8g6-x6q-2zf,Karma Bistro ATL,,33.76113,-84.198738,"Bar or Pub,Cocktail Lounge,Late Night",,2022-03
227-222@8g6-x6q-4d9,360 Sports Bar and Lounge,,33.763157,-84.195415,"Bar or Pub,Late Night,Sports Bar",,
223-222@8g6-sc7-j35,B J's Orioles Nest,,32.595954,-83.619581,Late Night,,
zzw-222@8g7-485-9s5,The Poncey Highland,,33.771817,-84.352716,"Bar or Pub,Brunch,Cocktail Lounge,Coffee Shop,Late Night",,2021-10
225-222@8gb-72n-8sq,Marlow's Tavern,Marlow's Tavern,34.034351,-84.569329,"American Food,Bar or Pub,Casual Dining,Dinner,Drinks,Lunch",,
22c-222@8g6-ty2-8vz,Late Nite,,32.834236,-83.625997,"Bar or Pub,Cocktail Lounge,Dance Club,Late Night",,
zzy-223@8gb-px9-575,Cumming Cigar,,34.206691,-84.137752,"Bar or Pub,Cigars,Late Night",,
222-224@8g6-ymt-bhq,Central Rail Kitchen & Bar,,33.843782,-84.307938,"BBQ and Southern Food,Bar or Pub,Cocktail Lounge,Late Night",,
zzw-223@8g6-y55-tjv,Cloud9 Hookah Lounge & Cafe,,33.990919,-84.275785,"Bar or Pub,Cafe,Hookah,Late Night",,2021-10
zzw-222@8g7-4cx-9vf,Club Babes Atlanta,,33.765487,-84.533153,"Adult Entertainment,Late Night",,
222-222@8g8-7pt-hyv,F & W Control Tower,,32.442585,-84.926309,Late Night,,
zzw-222@8g6-yks-t7q,Oasis Goodtime Emporium,,33.921485,-84.281573,"Adult Entertainment,Bar or Pub,Dance Club,Late Night",,2023-02
225-222@8g8-7q7-yjv,Club Fetish,,32.507452,-84.952408,"Bar or Pub,Late Night",,2022-08
zzy-222@8g6-xs4-rhq,Smokin Cues,,33.544943,-84.233687,"Bar or Pub,Late Night,Sports Bar",,
zzy-222@8g6-yjq-ysq,Moondog Growlers,,33.946926,-84.335912,"Bar or Pub,Late Night",,
zzw-222@8g7-4rw-j9z,Club Sugar Bush,,33.536466,-84.365535,"Dance Club,Late Night",,
223-223@8g7-4qd-4y9,Rodeo Sports Bar,,33.568464,-84.330868,"Bar or Pub,Late Night,Sports Bar",,
223-222@8g7-46w-zs5,Foxy Lady Lounge,,33.709398,-84.349862,Late Night,,
222-223@8g7-3z5-kj9,Neal's Place,,33.752248,-84.48566,"Bar or Pub,Late Night,Sports Bar",,2020-01
zzw-222@8g6-yqj-m8v,Dave & Buster's,Dave & Buster's,33.919759,-84.484939,"American Food,Casual Dining,Dinner,Drinks,Late Night,Lunch,Sports Bar",,
zzw-222@8g6-xpb-gp9,The Sports Zone,,33.622249,-84.235905,"Bar or Pub,Late Night,Sports Bar",,2020-01
24s-222@8g7-njh-zfz,Sister Louisa's Church,,33.957876,-83.379448,"Bar or Pub,Dive Bar,Late Night",,
226-222@8g6-x7b-vs5,Ponce Sports Lounge,,33.803953,-84.246871,"American Food,Bar or Pub,Burgers,Late Night,Sports Bar",,
zzy-222@8g7-49b-xyv,First Class Hookah,,33.656336,-84.333825,"Bar or Pub,Hookah,Late Night",,
zzw-222@8g6-qct-hnq,Twin City Country Club,,32.946616,-82.841713,"American Food,Bar or Pub,Country Club,Late Night",,
22b-223@8gd-q2n-kxq,The Bamboo Room Tiki Bar,,32.080165,-81.093325,"Bar or Pub,Cocktail Lounge,Late Night",,
227-222@8gj-g73-9fz,Disco Palace,,31.544364,-84.154693,Late Night,,2020-01
227-222@8g6-xrc-xt9,The Rack Sports Bar,,33.551626,-84.258658,"Bar or Pub,Late Night,Sports Bar",,
zzw-224@8g8-7tz-zj9,Outlaws Saloon,,32.537665,-84.955658,"Bar or Pub,Dancing,Late Night,Music Venue",,2020-01
223-222@8g6-y4x-2kz,Oak St Bottle Shop,,34.019509,-84.359135,"Bar or Pub,Late Night",,
zzw-227@8g6-ytb-nbk,O2 Bar Totowa,,33.966329,-84.133675,"Bar or Pub,Late Night",,2020-07
229-222@8gj-4mm-v9f,Billiard Academy,,30.83697,-83.979514,"Late Night,Pool and Billiards",,
224-224@8g7-479-xnq,Rooftop 866,,33.778448,-84.387818,"Bar or Pub,Cocktail Lounge,Late Night",,
zzw-222@8g6-x8p-wkz,Footprints Jamaican Restaurant & Lounge,,33.713587,-84.219497,"Bar or Pub,Cocktail Lounge,Late Night",,
225-222@8g7-474-9xq,Smith's Olde Bar,,33.797626,-84.368872,"Bar or Pub,Late Night,Music Venue,Pool and Billiards",,
226-223@8g7-46y-rhq,Caffeine Atlanta,,33.785907,-84.400469,"Bar or Pub,Cafe,Coffee Shop,Hookah,Late Night",,2021-10
224-223@8g8-4h3-wrk,Pops At the Top,,32.619279,-83.649433,"Bar or Pub,Late Night,Pool and Billiards,Sports Bar",,
227-222@8g7-86k-fvf,Sharifa Hookah Lounge,,33.464168,-82.09076,"Bar or Pub,Dance Club,Hookah,Late Night",,2020-01
224-223@8g7-47b-k4v,The Sun Dial Restaurant Bar & View,,33.759444,-84.388173,"American Food,Bar or Pub,Cocktail Lounge,Fine Dining,Late Night",,
224-222@8g6-ty2-8vz,BJs Billiards,,32.834213,-83.626051,"Late Night,Pool and Billiards",,
226-222@8gd-q2q-c89,The Rail Pub,,32.080756,-81.096314,"Bar or Pub,Late Night",,
223-223@8g6-ykk-qfz,Coronitas Bar & Grill,,33.930075,-84.268626,"Bar or Pub,Late Night",,
zzw-222@8g7-2f8-xt9,Paddys Irish Pub,,34.101033,-83.818583,"Bar or Pub,Irish Pub,Late Night",,
227-222@8gd-q2q-8qf,Feather & Freight,,32.082793,-81.094491,"Bar or Pub,Late Night",,2020-01
222-222@8g6-tpn-rff,A P's Hidden Hideaway,,32.787363,-83.652309,"Bar or Pub,Dive Bar,Late Night",,
229-222@8g7-4fk-dd9,Gizmos Sport Bar & Grill,,33.567473,-84.581024,"Bar or Pub,Late Night,Sports Bar",,2021-10
22h-222@8gd-q2v-h5z,Water Witch,,32.055756,-81.100683,"Bar or Pub,Cocktail Lounge,Late Night",,
222-222@8g7-47m-wx5,Club Bolts,,33.713841,-84.311814,"Dance Club,Late Night",,
228-223@8g7-485-cyv,Java Lords,,33.763773,-84.35085,"Bar or Pub,Coffee Shop,Late Night",,
22b-222@8g7-bfw-wzf,Edgar's Above Broad,,33.475049,-81.96276,"Bar or Pub,Late Night",,
zzw-227@8g7-482-xbk,Star Community Bar,,33.766253,-84.348831,"Bar or Pub,Late Night,Music Venue",,
222-223@8g7-48z-qmk,Boxcar,,33.729905,-84.418706,"American Food,Bar or Pub,Late Night,Wine Bar",,
zzw-223@8g6-xpb-gp9,Sudo Bar & Grill Ellenwood,,33.62223,-84.235966,"Bar or Pub,Late Night,Sports Bar",,
229-222@8gd-pwx-sqz,Jerry's Lounge,,31.99322,-81.10303,"Bar or Pub,Cocktail Lounge,Late Night",,
223-223@8gd-q2p-4gk,Bar At The American Legion Post 135,,32.064408,-81.09718,"Bar or Pub,Late Night",,
zzw-223@8gm-g7x-st9,Sutton's American Grill,,33.582885,-85.073716,American Food,,
225-222@8g7-479-x89,Aurum Lounge,,33.780699,-84.389692,"Dance Club,Late Night",,2021-10
22b-223@8g7-4br-8sq,The Vineyard Winemarket,,33.884206,-84.516242,"Bar or Pub,Late Night,Wine Bar",,
222-225@8g7-484-hqz,Madhouse Lounge,,33.776863,-84.353064,"Bar or Pub,Cocktail Lounge,Late Night",,2021-10
zzw-222@8gd-q79-bkz,The Islander,,32.01362,-80.983311,"Bar or Pub,Late Night",,
zzw-222@8g6-yk8-d5f,Eden,,33.887097,-84.254519,"American Food,Bar or Pub,Cocktail Lounge,Hookah,Late Night",,
zzy-225@8gd-q62-jy9,Wet Willie's,,31.992316,-80.848409,"Bar or Pub,Cocktail Lounge,Late Night",,
223-222@8g7-47b-d35,The Atlanta Eagle,,33.772755,-84.377388,"Bar or Pub,Dance Club,Gay Bar,Late Night",,2021-10
223-222@8g7-84k-w6k,The Hideout,,33.511759,-82.045381,"Bar or Pub,Dive Bar,Late Night",,
22k-222@8gd-q2v-hh5,The Wormhole Music Club and Bar,,32.055254,-81.101351,"American Food,Bar or Pub,Dive Bar,Late Night,Music Venue",,
zzw-224@8g7-4cs-xdv,Burnin Hookah Lounge,,33.798804,-84.513538,"Bar or Pub,Hookah,Late Night",,2020-01
zzw-225@8g7-46n-cnq,Fuse,,33.747646,-84.401694,"Bar or Pub,Cocktail Lounge,Late Night",,2020-01
222-222@8g7-3yp-c5z,The Voo 2,,33.696187,-84.486763,"Bar or Pub,Cocktail Lounge,Late Night",,
226-224@8g6-ykz-bhq,St Julep,,33.839089,-84.375227,"Bar or Pub,Late Night",,
22b-226@8gb-qhg-rp9,Black Bear Bier Garten,,34.86807,-84.322398,"American Food,Beer Garden,German Food,Late Night",,
222-223@8g7-46z-9cq,The Consulate,,33.78194,-84.380211,"American Food,Bar or Pub,Cocktail Lounge,Gourmet,Late Night",,
22b-222@8g7-njj-33q,Cloud,,33.958085,-83.376191,"Bar or Pub,Cocktail Lounge,Late Night",,
224-222@8g6-x94-ysq,O'riley's Spirit & Food,,33.759254,-84.24146,"Late Night,Pool and Billiards",,
zzw-222@8g6-x4t-fpv,Dugan's,,33.692104,-84.071204,"Bar or Pub,Late Night",,
22d-222@8g6-xgt-gp9,Niko's Wine Corner,,33.864789,-84.016439,"Bar or Pub,Late Night,Wine Bar",,
zzw-223@8g7-474-b6k,The Hideaway,,33.797983,-84.371532,"Bar or Pub,Gay Bar,Late Night",,
222-223@8gj-6tp-5pv,Cafe Mist Hookah Lounge,,30.870349,-83.290112,"Bar or Pub,Hookah,Late Night",,2020-01
zzw-224@8g7-4cx-9vf,Riley's Showbar,,33.764703,-84.53299,Late Night,,2020-01
227-222@8g7-hh4-pqf,Maddy's Public House,,33.737426,-82.739711,"Bar or Pub,Cocktail Lounge,Late Night",,
zzw-224@8g7-4ps-rrk,Irish Bred Pub,,33.659891,-84.428115,"American Food,Bar or Pub,Irish Pub,Karaoke,Late Night",,
222-222@8gp-gdt-qj9,Log Cabin,,31.198398,-83.253479,"Bar or Pub,Late Night",,2022-08
222-223@8g7-48t-py9,Hot Jam Swings,,33.740007,-84.407454,"Dance Club,Late Night",,
zzw-222@8gn-jcj-fvf,Lil Kim's Cove,,32.453529,-84.991569,Late Night,,
223-222@8g6-xd3-kcq,Third Base Sports Grill & Bar,,33.632385,-83.97719,"Bar or Pub,Late Night,Sports Bar",,
224-222@8gd-pws-cdv,Shooters Lounge,,32.028241,-81.109978,"Late Night,Pool and Billiards",,2020-01
222-222@8g7-4bj-gc5,La Pura Vida,,33.898292,-84.496511,"Bar or Pub,Cocktail Lounge,Hookah,Late Night",,
zzw-223@8gb-6rx-2tv,UnWine'd and Tap Acworth,,34.037586,-84.774508,"Bar or Pub,Dessert,Late Night,Tapas,Wine Bar",,
229-223@8g7-83s-nt9,Cork And Flame,,33.539982,-82.12754,"American Food,Bar or Pub,Late Night,Tapas",,
22k-222@8g7-bf4-bx5,After Three Club,,33.461434,-81.980789,Late Night,,
223-223@8gp-4yq-jsq,The Bistro & Brew,,30.784791,-81.610049,"American Food,Cafe",,2020-01
223-222@8gb-6yw-4gk,Marlow's Tavern,Marlow's Tavern,34.121116,-84.523133,"American Food,Bar or Pub,Casual Dining,Dinner,Drinks,Lunch",,
225-222@8g6-ynx-rhq,Marlow's Tavern,Marlow's Tavern,33.978993,-84.427098,"American Food,Bar or Pub,Casual Dining,Dinner,Drinks,Lunch",,
242-222@8g7-46m-vs5,The Royal Peacock,,33.755708,-84.381568,"Bar or Pub,Dance Club,Late Night",,
zzw-224@8g7-njn-d9z,Herschel's 34 Chicken & Ribs Kitchen,,33.958511,-83.374211,"Bar or Pub,Late Night,Sports Bar",,2020-01
22m-222@8g7-njj-2kz,Nowhere Bar,,33.958709,-83.377019,"Bar or Pub,Dive Bar,Late Night,Pool and Billiards",,
zzw-224@8g6-q3b-w49,Velvet Elvis Supper Club,,33.081371,-83.227768,"American Food,Bar or Pub,Late Night",,
222-222@8g7-4qp-fzz,Rumors,,33.647289,-84.36452,Late Night,,
228-222@8g6-x7f-9vf,Hahu lounge,,33.802166,-84.206702,"Bar or Pub,Hookah,Late Night",,
223-222@8gd-q79-7qz,Island Sports Bar & Grill,,32.015601,-80.980388,"Bar or Pub,Late Night,Sports Bar",,
zzw-223@8g6-yc6-26k,Bliss Bar and Lounge,,34.032814,-84.184916,"Bar or Pub,Cocktail Lounge,Hookah,Late Night",,
zzw-222@8g6-x8q-8jv,Zanza,,33.71415,-84.218553,"Bar or Pub,Late Night",,
22q-222@8gd-q2n-kxq,Fifty One Degrees,,32.079896,-81.09343,"Bar or Pub,Dance Club,Late Night",,
zzw-223@8g7-njh-z9f,Iron Factory,,33.957944,-83.379979,"Karaoke,Korean Food,Late Night,Music Venue",,
22q-223@8gd-q2n-kvf,New Realm Distilling Company,,32.078589,-81.093176,"Bar or Pub,Brewery or Brewpub,Cocktail Lounge,Late Night",,2022-10
zzw-222@8g7-bg4-vvf,Capri Lounge,,33.455611,-81.968407,"Bar or Pub,Cocktail Lounge,Late Night",,
222-223@8gd-qbw-3dv,Top Deck Bar,,32.082031,-81.092844,"American Food,Bar or Pub,Cocktail Lounge,Late Night,Tapas",,
227-222@8gj-6tt-d35,Stogies Downtown,,30.830723,-83.278498,"Bar or Pub,Late Night,Wine Bar",,
222-222@8gb-ryz-kj9,Scott's On The Square,,34.298976,-83.827662,"Bar or Pub,Late Night",,
zzw-222@8g6-zq7-yy9,Chicago's Billiards,,33.602781,-83.840281,"Late Night,Pool and Billiards",,
zzw-226@8gp-vt5-vfz,Moonshiners,,31.216427,-81.495606,"Bar or Pub,Dive Bar,Late Night,Music Venue",,
225-222@8g7-4ps-s89,Kings Cigar Lounge,,33.659377,-84.428139,"Bar or Pub,Cocktail Lounge,Late Night",,
22f-222@8g7-4b5-z9f,Marlow's Tavern,Marlow's Tavern,33.859435,-84.480794,"American Food,Bar or Pub,Casual Dining,Dinner,Drinks,Lunch",,
zzy-224@8gn-jck-kmk,Club Visions,,32.453249,-84.938708,"Bar or Pub,Karaoke,Late Night",,
223-222@8gp-vt9-rx5,Port City Billiards,,31.192344,-81.484081,"Late Night,Pool and Billiards",,2020-01
zzw-222@8gj-6tw-dqf,Mulligan's Sports Pub,,30.845895,-83.309896,"Bar or Pub,Late Night,Sports Bar",,
zzy-222@8g7-bfw-kfz,Sweetwater Bar,,33.47663,-81.967801,"Bar or Pub,Late Night",,
224-222@8g7-4rh-54v,Baby Grand Piano Bar,,33.610872,-84.470888,"Bar or Pub,Dance Club,Late Night",,2020-01
222-222@8g7-3d9-xqz,Memories,,33.503226,-84.237601,Late Night,,
227-222@8gj-6tw-dqf,Mill Town Groove,,30.845899,-83.309404,"Bar or Pub,Late Night",,2022-12
zzw-224@8g7-26y-mp9,Rushing Trading Company,,34.107143,-84.035168,"Bar or Pub,Brunch,Cocktail Lounge,Coffee Shop,Late Night",,
zzw-222@8g7-484-7wk,The Local,,33.774128,-84.362283,"Bar or Pub,Late Night",,
zzw-222@8g7-42m-jy9,29 Degrees Sports Bar & Grill,,33.633406,-84.491808,"Bar or Pub,Late Night,Sports Bar",,2020-01
zzw-22b@8g7-46n-w49,East Side Lounge,,33.740758,-84.346448,"Bar or Pub,Cocktail Lounge,Late Night",,2021-10
222-222@8g7-njh-zj9,Manhattan bar,,33.958894,-83.379076,"Bar or Pub,Cocktail Lounge,Late Night",,
zzw-222@8g7-37v-qs5,Dave & Buster's,Dave & Buster's,33.427,-84.189173,"American Food,Casual Dining,Dinner,Drinks,Late Night,Lunch,Sports Bar",,
222-225@8g6-ycn-8vz,The Chateau Wine and Cigar Bar,,34.070725,-84.165185,"Bar or Pub,Late Night,Wine Bar",,
224-224@8g7-453-kmk,Bonz,,33.747032,-84.700514,"Bar or Pub,Late Night,Sports Bar",,2020-01
zzw-227@8g6-ykz-bkz,Moondogs,,33.840783,-84.375372,"Bar or Pub,Dance Club,Karaoke,Late Night,Sports Bar",,
222-222@8g7-47p-jjv,Dra's Bar & Grill,,33.722138,-84.317582,"American Food,Bar or Pub,Late Night",,2022-12
223-222@8gn-jbh-jqf,Nonic Beer Bar & Kitchen,,32.470112,-84.993744,"Bar or Pub,Late Night",,
223-223@8g7-474-mc5,My Sister's Room,,33.784735,-84.384828,"American Food,Bar or Pub,Dance Club,Gay Bar,Late Night",,
zzw-225@8g7-4cx-9vf,Babes Pub & Pool,,33.765455,-84.533168,"Bar or Pub,Late Night,Pool and Billiards",,
222-223@8g6-y2m-y9z,W XYZ Bar,,34.039768,-84.307518,"Bar or Pub,Cocktail Lounge,Late Night,Tapas",,
22q-222@8gb-6yq-jvz,Barrel and Barley Craft Beer Market,,34.100908,-84.519792,"Beer Garden,Late Night",,2020-01
222-222@8g7-46w-8y9,Coco Loco,,33.715479,-84.345498,"Dance Club,Late Night",,2022-02
zzw-223@8g7-p3g-j7q,Butcher & Vine,,33.859176,-83.405968,"Bar or Pub,Catering,Late Night,Wine Bar",,2022-08
222-222@8g7-njg-9vf,100 Proof,,33.957782,-83.373767,"Bar or Pub,Dive Bar,Late Night,Wine Bar",,2020-08
zzw-227@8g7-4br-8sq,Locanda Firenze,,33.884145,-84.515814,"Bar or Pub,Coffee Shop,Italian Food,Late Night,Wine Bar",,2020-01
226-223@8g6-ym2-cqz,Arif lounge,,33.831322,-84.341565,"Bar or Pub,Cocktail Lounge,Late Night",,2021-10
zzw-225@8g6-yjj-x3q,Xperience Sports Bar & Lounge,,33.85864,-84.309192,"Bar or Pub,Cocktail Lounge,Hookah,Late Night",,
223-223@8g6-ykw-vzz,Whisky Mistress,,33.841614,-84.371853,"American Food,Bar or Pub,Late Night,Music Venue",,
225-223@8g6-vfn-2c5,Aces Lounge,,32.53963,-82.903426,"Bar or Pub,Cocktail Lounge,Late Night",,2022-06
zzw-224@8g7-485-68v,8arm,,33.773815,-84.364198,"Bar or Pub,Cocktail Lounge,Japanese Food,Late Night,Wine Bar",,2022-12
22f-222@8g6-yjw-9j9,Clay's Sports Cafe,,33.932708,-84.380401,"Bar or Pub,Chicken Wings,Dive Bar,Late Night",,2021-10
22c-222@8g6-ykz-b49,Churchill's British Pub,,33.842624,-84.380263,"Bar or Pub,Late Night",,
222-222@8g6-y44-435,The Vintage,,34.06944,-84.27844,"Bar or Pub,Late Night,Wine Bar",,2021-10
zzw-227@8g7-3d2-87q,Big Ron's Cigar Bar,,33.527254,-84.272844,"Bar or Pub,Cigars,Late Night",,
226-222@8gd-q2q-c3q,Club One,,32.08157,-81.094852,"Bar or Pub,Dance Club,Gay Bar,Late Night",,
223-223@8g7-46r-bx5,Edgewood Speakeasy,,33.754142,-84.376894,"Bar or Pub,Late Night",,2021-10
223-222@8g8-f22-dy9,End Zone Sports Bar,,32.396981,-82.059901,"Bar or Pub,Chicken Wings,Late Night,Sports Bar",,2022-06
227-222@8gn-jbh-m8v,Martini's,,32.467063,-84.993702,"Bar or Pub,Cocktail Lounge,Late Night",,
227-222@8g6-x3z-bhq,Barnacles Sports Lounge,,33.696261,-84.092385,"Bar or Pub,Late Night,Sports Bar",,2021-11
zzw-224@8g6-yvc-5mk,Cultivation Brewery,,33.940926,-84.226981,"Bar or Pub,Brewery or Brewpub,Late Night",,
223-222@8g7-cc6-p35,Luh Buddy's,,32.604051,-82.336922,"Bar or Pub,Late Night,Sports Bar",,2022-07
22g-224@8g7-46n-cnq,Parlor,,33.747931,-84.401572,"Bar or Pub,Cocktail Lounge,Late Night",,
223-222@8gb-76z-qj9,Phoenix Bar & Grill,,33.909068,-84.780203,"Bar or Pub,Late Night,Sports Bar",,2021-10
zzw-222@8g6-ykz-9pv,Rise and Revelry,,33.837393,-84.377609,"American Food,Bar or Pub,Cocktail Lounge,Late Night",,2020-01
222-222@8g7-479-wkz,The Daiquiri Factory,,33.77911,-84.386966,"Bar or Pub,Karaoke,Late Night,Pool and Billiards",,2020-07
223-222@8g6-ykz-6zf,Red Door Tavern,,33.841953,-84.379223,"Bar or Pub,Dive Bar,Late Night",,
222-222@8gb-rw3-gff,Revival Hall Taproom,,34.117126,-83.572938,"Bar or Pub,Late Night,Wine Bar",,
224-222@8g6-ypr-rc5,Suburban Tap,,33.981782,-84.426137,"Bar or Pub,Chicken Wings,Dive Bar,Late Night",,
zzw-222@8gm-gjs-s89,Country Club of West Georgia,,33.643615,-84.926044,Country Club,,
zzw-222@8gd-q3g-75z,Sunny's Lounge,,32.034962,-81.217719,"Bar or Pub,Late Night",,2020-01
zzw-224@8g6-ym3-x89,Whiskey Blue,,33.847749,-84.366317,"Bar or Pub,Cocktail Lounge,Late Night,Wine Bar",,
225-222@8g7-nmv-pn5,The Rail,,33.942687,-83.452054,"Bar or Pub,Late Night",,
224-222@8g6-nch-p7q,Hammers Rack & Cue,,32.846324,-83.205824,"Late Night,Pool and Billiards",,2020-01
223-222@8g7-n4y-7nq,Lake Oconee Bistro,,33.440296,-83.263753,"American Food,Bar or Pub,Cocktail Lounge,Late Night",,
222-222@8g6-y3w-y5f,Cutters Cigar & Spirits,,34.09623,-84.280578,"Bar or Pub,Cigars,Cocktail Lounge,Late Night",,
223-222@8g6-yj7-fpv,Marlow's Tavern,Marlow's Tavern,33.891401,-84.323188,"American Food,Bar or Pub,Casual Dining,Dinner,Drinks,Lunch",,
zzw-223@8g6-y44-3qz,Branch and Barrel,,34.070513,-84.277957,"American Food,Bar or Pub,Cocktail Lounge,Late Night",,
225-223@8g7-njj-2rk,Walker's Pub,,33.958196,-83.375084,"Bar or Pub,Coffee Shop,Late Night",,
225-222@8gb-6yq-jvz,Truck & Tap Woodstock,,34.100345,-84.519934,"Bar or Pub,Late Night,Truck or Cart",,
222-222@8g6-yqm-6rk,The Rusty Barrel,,33.948241,-84.507048,"Bar or Pub,Burgers,Dive Bar,Late Night",,
222-222@8g6-x75-y5f,Marlow's Tavern,Marlow's Tavern,33.847072,-84.248652,"American Food,Bar or Pub,Casual Dining,Dinner,Drinks,Lunch",,
228-222@8g7-njq-w6k,Aromas,,33.93897,-83.386166,"Bar or Pub,Dessert,Late Night,Wine Bar",,2020-01
224-222@8g6-y2m-m49,Dave & Buster's,Dave & Buster's,34.043882,-84.293357,"American Food,Casual Dining,Dinner,Drinks,Late Night,Lunch,Sports Bar",,
zzw-223@8gb-6xy-8n5,Tavern at Towne Lake,,34.118988,-84.553057,"American Food,Bar or Pub,Late Night",,
zzw-223@8g6-ytb-fvf,Dan Sung Sa,,33.958203,-84.130643,"Bar or Pub,Karaoke,Korean Food,Late Night",,
222-223@8g6-yv2-wp9,Barlow's Bar And Grill,,33.861744,-84.186719,"Bar or Pub,Late Night,Sports Bar",,2020-01
225-222@8g7-46n-vzz,Banshee,,33.739969,-84.345941,"American Food,Bar or Pub,Cocktail Lounge,Late Night",,
222-222@8g8-5vc-g49,Sidney's Carry Out,,32.875177,-84.325562,"Bar or Pub,Late Night",,2022-12
222-222@8g6-ykz-qfz,Pink Pony,,33.834873,-84.337136,"Adult Entertainment,Bar or Pub,Cocktail Lounge,Late Night",,
zzw-222@8g7-4cb-psq,Colabbo Lounge,,33.906879,-84.489695,"Bar or Pub,Cocktail Lounge,Hookah,Late Night",,
22c-222@8g6-t85-r6k,Lazy Susan Tapas Bar,,32.836098,-83.629083,"Bar or Pub,Cocktail Lounge,Late Night,Tapas,Wine Bar",,2022-06
zzw-223@8g7-n3g-zmk,Richard's Wine Bar,,33.455338,-83.2404,"Bar or Pub,Late Night,Wine Bar",,2021-12
223-224@8g6-y4w-mx5,Mirage Restaurant Bar & Hookah Lounge,,34.02287,-84.36183,"Bar or Pub,Cocktail Lounge,Hookah,Late Night",,2020-01
zzw-225@8g7-479-xwk,Blue India,,33.779629,-84.383752,"Bar or Pub,Cocktail Lounge,European Food,Indian Food,Late Night",,
229-222@8gd-q2q-bzf,The Bar Bar,,32.080583,-81.094732,"Bar or Pub,Late Night",,
22n-222@8gb-ryz-xkf,Downtown Drafts,,34.299425,-83.82632,"Bar or Pub,Late Night,Wine Bar",,
zzw-224@8g6-ykz-b6k,Atlas,,33.839828,-84.38229,"American Food,Bar or Pub,Cocktail Lounge,Fine Dining,Late Night",,
zzw-224@8g7-bfw-jgk,Studio Neighborhood Bar,,33.474862,-81.971987,"Bar or Pub,Late Night",,2022-06
223-223@8g7-478-nqz,Octane Westside,,33.779452,-84.410425,"Bar or Pub,Cafe,Cocktail Lounge,Coffee Shop,Late Night",,2021-10
227-222@8g7-bfw-kfz,The Loft of Augusta,,33.476688,-81.967928,"Bar or Pub,Late Night",,
22j-222@8g7-484-q2k,The Cavern,,33.782936,-84.354224,"Bar or Pub,Late Night",,2020-01
225-222@8g7-hh2-3kf,Vegas Sports Bar & Grill,,33.732382,-82.753647,"Bar or Pub,Late Night,Sports Bar",,
22c-222@8g6-yvb-j7q,45 South Cafe,,33.941681,-84.213109,"Bagel Shop,Bar or Pub,Coffee Shop,Late Night,Wine Bar",,
223-222@8g6-ykz-b49,Supply & Demand,,33.842693,-84.380297,"Bar or Pub,Late Night",,
25m-222@8g7-njh-zfz,Wayward,,33.957471,-83.379272,"Bar or Pub,Late Night",,2020-01
228-222@8g6-yk5-2tv,Luv 2 Lounge,,33.883557,-84.287838,"Bar or Pub,Cocktail Lounge,Late Night",,
224-222@8g6-tnk-3nq,Sparks Sports Bar,,32.823225,-83.698777,"Bar or Pub,Late Night,Sports Bar",,
223-222@8g7-473-6hq,Revel,,33.803628,-84.427437,"Bar or Pub,Cocktail Lounge,Late Night",,
22c-222@8g6-yvg-3kf,777 Lounge & Cafe,,33.915678,-84.259817,"Bar or Pub,Coffee Shop,Late Night,Smoothie & Juice Bar",,
224-222@8g7-njh-zxq,Go Bar,,33.960104,-83.382355,"Bar or Pub,Late Night",,2020-01
222-226@8g6-ssk-w6k,Charlie's Bar & Grill,,32.557084,-83.663601,"American Food,Bar or Pub,Karaoke,Late Night",,
225-222@8g7-47k-fj9,McGowan's Oakhurst Pub,,33.76018,-84.302287,"Bar or Pub,Late Night",,2020-01
zzw-224@8g6-ytb-s5z,Agit Lounge & Karaoke Bar,,33.962516,-84.131523,"Bar or Pub,Late Night",,2021-10
222-222@8g6-x78-pqf,The Other Bar,,33.848121,-84.227099,"Bar or Pub,Dive Bar,Karaoke,Late Night",,2020-01
223-222@8g7-26q-qcq,Pimenton Parrilla & Bar,,34.097663,-84.012525,"Karaoke,Late Night,Latin American Food",,
224-222@8gd-qbw-3dv,Kevin Barry's Pub,,32.081979,-81.092684,"Bar or Pub,Irish Pub,Late Night",,2020-08
226-222@8gb-6yp-py9,Century House,,34.099057,-84.51957,"American Food,Bar or Pub,Cocktail Lounge,Dessert,Late Night",,
224-222@8g8-7tz-z9f,Sound Factory Nightclub And Bar,,32.537793,-84.95305,"Bar or Pub,Dance Club,Karaoke,Late Night",,
223-222@8g7-3dy-f4v,American Legion Post 258,,33.496905,-84.343225,"Bar or Pub,Cocktail Lounge,Karaoke,Late Night,Non-profit",,
22m-222@8g7-46n-b6k,Lunacy Black Market,,33.752263,-84.395209,"American Food,Bar or Pub,Late Night,Wine Bar",,2020-01
22j-222@8g6-ycf-g6k,Local On North Duluth,,34.003417,-84.144338,"American Food,Bar or Pub,Late Night",,
zzy-222@8g7-njn-d9z,Allgood Lounge,,33.958438,-83.374827,"Bar or Pub,Cocktail Lounge,Late Night",,
223-222@8g7-46z-tqf,Bar Amalfi,,33.784223,-84.405477,"Bar or Pub,Cafe,Cocktail Lounge,Gelato Shop,Late Night",,2021-10
zzw-222@8gj-6ry-ffz,Cuz's Sports Bar & Grill,,30.92045,-83.254282,"Bar or Pub,Late Night,Sports Bar",,
22b-223@8g7-474-ks5,TEN Atlanta,,33.781524,-84.380836,"American Food,Bar or Pub,Dance Club,Gay Bar,Late Night",,
223-222@8g6-yth-r6k,Soosanghan Pocha,,33.947224,-84.131929,"Karaoke,Korean Food,Late Night",,2021-10
224-223@8g6-x93-td9,The Corner Pub,,33.773283,-84.285641,"American Food,Bar or Pub,Late Night",,
229-222@8gd-q2n-m49,HangFire,,32.079784,-81.092996,"Bar or Pub,Dive Bar,Late Night",,2020-01
228-222@8g6-yjf-2tv,Olde Blind Dog Irish Pub,,33.869611,-84.336842,"Bar or Pub,Irish Pub,Late Night",,2022-06
222-222@8g6-ym5-59f,Gold Room,,33.820987,-84.368461,"Bar or Pub,Cocktail Lounge,Dance Club,Late Night",,2022-08
222-222@8g8-7t6-6c5,Big Eddy Club,,32.545643,-85.018948,Late Night,,
zzw-224@8g6-ykp-yy9,Red Fox Billiards Club,,33.907711,-84.288051,"Bar or Pub,Late Night,Pool and Billiards",,
227-222@8g7-bfw-z9f,Tipsey McStumbles,,33.473903,-81.963431,"Bar or Pub,Late Night",,
222-222@8g6-ytr-5cq,Gold Dust Bar and Grill,,33.867326,-84.19121,"Bar or Pub,Late Night,Sports Bar",,
228-222@8gp-f4z-fpv,Traffic Light,,31.217268,-82.360996,Late Night,,
223-222@8g6-ybb-cqz,American Redemption,,34.066173,-84.070523,"Bar or Pub,Late Night",,2020-01
zzw-225@8gd-qbg-975,King's Inn,,32.040841,-81.064981,"Bar or Pub,Dive Bar,Late Night",,2020-01
22c-224@8g6-ykz-99f,Holeman & Finch,,33.815967,-84.390221,"Bar or Pub,Cocktail Lounge,Late Night",,2021-10
zzw-222@8gd-q2q-bzf,Pour Larry's Bar,,32.080905,-81.094537,"Bar or Pub,Dive Bar,Late Night,Sports Bar",,
zzw-22d@8gd-qjq-q9f,Southside Billiard Club,,31.981949,-81.167299,"Late Night,Pool and Billiards",,2020-01
224-223@8g7-46n-89z,Chic Restaurant & Lounge,,33.750753,-84.396265,"Bar or Pub,Hookah,Late Night",,
224-222@8gj-g7n-z9f,Sports Zone,,31.567632,-84.176724,Late Night,,2020-01
227-222@8g6-ykz-6zf,The Dive Bar,,33.842087,-84.379249,"Bar or Pub,Dive Bar,Late Night",,
229-225@8gb-3bm-hh5,The Study,,34.237001,-84.489526,"American Food,Bar or Pub,Cocktail Lounge,Late Night",,2020-01
22n-222@8g7-485-5fz,CRU Urban Lounge,,33.771787,-84.368198,"Bar or Pub,Cocktail Lounge,Hookah,Late Night",,
zzw-222@8g7-pw2-kzz,Washington Wilkes Country Club,,33.701483,-82.693842,Country Club,,
zzw-222@8g6-z6t-8qf,Monroe Golf & Country Club,,33.770215,-83.726176,Country Club,,
228-222@8gd-qbw-2tv,Bay Street Blues,,32.080557,-81.090638,"Bar or Pub,Dive Bar,Late Night,Music Venue",,
224-222@8g6-xhp-pvz,Jack's Sports Bar & Grill,,33.825615,-84.113676,"Bar or Pub,Late Night,Sports Bar",,
223-223@8gm-jrc-bx5,The 104 Pub,,33.02114,-85.079951,"Bar or Pub,Late Night",,
229-222@8g7-4c9-7dv,Burn By Rocky Patel,,33.889402,-84.470206,"Bar or Pub,Cigars,Cocktail Lounge,Late Night",,
246-222@8g7-46z-6ff,AC Lounge,,33.786125,-84.385909,"Bar or Pub,Late Night",,
223-222@8g6-x8f-8jv,Juicy Joint,,33.737451,-84.253681,"Bar or Pub,Cocktail Lounge,Late Night",,
226-223@8g7-479-xwk,Hi Five Diner,,33.779281,-84.383811,"Bar or Pub,Cocktail Lounge,Coffee Shop,Diner,Late Night",,2022-12
222-222@8gn-jbh-hnq,River & Rail,,32.469808,-84.992715,"American Food,Bar or Pub,Cocktail Lounge,Late Night",,2020-01
225-222@8g6-ymj-8qf,Main Stage Gentlemen's Club,,33.899045,-84.380477,"Bar or Pub,Late Night",,
zzy-223@8g7-46r-7t9,The Locker Club,,33.754099,-84.371618,"Bar or Pub,Cocktail Lounge,Late Night",,2023-02
224-222@8g6-y55-789,Confetti's Bar & Grill,,33.967106,-84.259777,"Bar or Pub,Hookah,Late Night,Sports Bar",,
224-224@8g7-47b-k4v,The Lobby Bar,,33.759392,-84.387908,"Bar or Pub,Late Night",,
zzw-225@8g6-ytk-jqf,Vip Jr Billiard,,33.957923,-84.141167,"Late Night,Pool and Billiards",,
222-222@8gb-76v-xh5,Dallas Billiards,,33.908934,-84.803535,"Late Night,Pool and Billiards",,2022-01
zzw-222@8g6-zq4-nqz,Pool Room & Cafe,,33.592817,-83.873798,"Cafe,Late Night,Pool and Billiards",,2020-01
223-223@8g6-yky-575,Mr B Bar,,33.852561,-84.381494,"Bar or Pub,Cocktail Lounge,Late Night",,
224-224@8g6-ykq-fvf,Big Daddy's Hookah,,33.898267,-84.304594,"Bar or Pub,Hookah,Late Night",,2022-10
zzw-222@8gj-6s6-ht9,Rock N Rodeo,,30.889331,-83.271367,"Dance Club,Late Night",,2022-12
225-222@8g7-33w-xdv,Classic Cue,,33.451804,-84.455625,"Bar or Pub,Late Night,Pool and Billiards,Sports Bar",,
225-222@8g6-yjh-tgk,Cephora Lounge,,33.86615,-84.308995,"Bar or Pub,Cocktail Lounge,Late Night",,
zzw-223@8g7-4qb-9zz,Ritmos Bar and Grill,,33.573493,-84.370339,"Dance Club,Late Night",,2023-02
228-223@8g7-48t-pd9,Rain Night Club & Lounge,,33.736398,-84.40254,"Bar or Pub,Cocktail Lounge,Dance Club,Late Night",,2020-01
224-222@8g6-xpw-yvz,Up 'n Smoke Hookah Lounge,,33.693447,-84.261844,"Bar or Pub,Hookah,Late Night",,2020-01
224-223@8g7-47b-g6k,The Bar,,33.763489,-84.386881,"Bar or Pub,Late Night",,
227-222@8g6-y4q-6c5,Lucky's Burger & Brew,,34.030232,-84.35553,"American Food,Bar or Pub,Dessert,Late Night,Sports Bar",,
223-222@8g7-46r-bzf,Clues and Cocktails,,33.755693,-84.377319,"Bar or Pub,Cocktail Lounge,Late Night",,2021-03
228-222@8g7-4gp-xh5,Montana Cigar,,33.584761,-84.540425,"Bar or Pub,Cigars,Late Night",,
222-222@8g6-ykz-9mk,Storico Vino,,33.838625,-84.38009,"Bar or Pub,Cocktail Lounge,Italian Food,Late Night,Wine Bar",,
zzy-222@8g6-ty2-6rk,BWs,,32.83097,-83.628589,"Late Night,Pool and Billiards",,
223-222@8g8-7v2-tsq,American Buffalo,,32.528065,-84.958585,"Bar or Pub,Chicken Wings,Late Night,Pool and Billiards",,
22f-223@8g6-ykz-7qz,Sovereign Sweets,,33.842745,-84.37947,"Bar or Pub,Cocktail Lounge,Dessert,Late Night",,
zzw-222@8g8-7pk-xwk,Bobby's Bar,,32.47968,-84.923555,Late Night,,
zzy-222@8gm-frv-qpv,The Watering Hole,,33.733072,-84.928981,"Bar or Pub,Late Night,Sports Bar",,
224-222@8g6-xrc-xt9,Black Diamond Lounge,,33.551639,-84.258693,"Bar or Pub,Cocktail Lounge,Late Night",,2022-10
22g-222@8g7-484-8jv,El Bar,,33.7735,-84.356627,"Bar or Pub,Cocktail Lounge,Late Night,Mexican Food",,
zzy-223@8gb-3st-vvf,Cold Creek,,34.825861,-84.763107,"Bar or Pub,Late Night,Wine Bar",,2023-01
223-222@8gb-6yq-k75,Salt Factory Pub,,34.099627,-84.520507,"Bar or Pub,Pizza",,
23b-222@8g7-njn-dd9,South Kitchen Bar,,33.95971,-83.375192,"American Food,Bar or Pub,Cocktail Lounge,Late Night",,
224-222@8g7-3yp-tvz,Club Ellery's,,33.706417,-84.455339,"American Food,Bar or Pub,Dance Club,Late Night",,
222-222@8g6-ym4-pjv,Tripps Bar,,33.810031,-84.36723,"Bar or Pub,Gay Bar,Late Night",,
226-222@8g6-ym2-cqz,Royal Lounge,,33.83131,-84.341525,"Bar or Pub,Cocktail Lounge,Hookah,Late Night",,2021-10
zzw-222@8gb-72q-sqz,Cue's Billiards,,34.033315,-84.526168,"Bar or Pub,Burgers,Late Night,Pool and Billiards",,
zzw-225@8g6-ym5-52k,Tongue & Groove,,33.822255,-84.368672,"Dance Club,Late Night",,
224-222@8g7-bgt-pvz,Fishbowl Lounge,,33.419609,-82.031663,"Bar or Pub,Cocktail Lounge,Karaoke,Late Night",,
zzw-22c@8g6-ym3-x5z,Seven Lamps,,33.847353,-84.365737,"American Food,Bar or Pub,Brunch,Cocktail Lounge,Late Night",,
22m-223@8gd-q2n-kvf,El Rocko Lounge,,32.078712,-81.093449,"Bar or Pub,Cocktail Lounge,Late Night",,
zzw-222@8gd-q2v-mzf,Lone Wolf Lounge,,32.052896,-81.098194,"Bar or Pub,Cocktail Lounge,Late Night",,
zzw-223@8g6-ycb-gtv,Hamonee Karaoke Bar,,34.000261,-84.16994,"Karaoke,Late Night",,
22f-223@8gd-q2n-p7q,Pinkie Master's Lounge,,32.073643,-81.092602,"Bar or Pub,Dive Bar,Late Night",,
zzy-222@8g6-yky-nwk,Johnny's Hideaway,,33.857769,-84.380706,"Bar or Pub,Late Night",,
zzw-222@8gm-drr-wzf,RPM Full Service,,33.376259,-84.799909,"American Food,Bar or Pub,Late Night",,
229-222@8gb-6qz-92k,J D 's Bar B Que,,34.062148,-84.665774,"BBQ and Southern Food,Bar or Pub,Late Night,Wine Bar",,
223-222@8gd-p56-dn5,Rude Rudy's,,32.418685,-81.774664,"Dance Club,Late Night",,2020-01
224-223@8g6-ytk-sbk,Luxor Karaoke & Bar,,33.966802,-84.142055,"American Food,Bar or Pub,Karaoke,Late Night",,
zzw-224@8gb-268-t5f,Planet of the Grapes Wine Bar And Retail Store,,34.77263,-84.968868,"Bar or Pub,Late Night,Wine Bar",,2021-10
225-222@8gm-dzn-8qf,The Tavern On 74,,33.407938,-84.600647,"Bar or Pub,Late Night,Sports Bar",,
223-229@8g7-46q-cwk,Hop City Craft Beer and Wine,,33.757235,-84.36404,"Bar or Pub,Late Night",,
222-222@8g6-ym5-249,Club Life,,33.808339,-84.363518,"Dance Club,Late Night",,2020-01
223-223@8gm-jnx-7bk,The Cypress Saloon,,33.015005,-85.029357,Late Night,,2020-01
22j-222@8g7-bfw-jy9,Sole Augusta,,33.478566,-81.971697,"Bar or Pub,Cocktail Lounge,Late Night,Sushi,Tapas",,
zzw-223@8gd-qb7-m8v,Exclusives Bar & Grille,,32.065248,-81.058245,"Bar or Pub,Late Night,Music Venue,Sports Bar",,
zzw-222@8gd-q2v-ks5,Sey Hey,,32.053639,-81.101862,"Bar or Pub,Late Night",,2022-08
zzw-222@8gb-6sv-pn5,Luke And Nicks All American Coney Island,,34.012816,-84.75476,"Bar or Pub,Late Night,Sports Bar",,2020-01
225-222@8g7-njn-d9z,Genco Import,,33.958438,-83.374897,"Bar or Pub,Late Night",,2021-10
228-222@8g7-47b-q4v,617 Social Club,,33.771529,-84.388696,"Bar or Pub,Cocktail Lounge,Late Night,Sports Bar",,2022-03
22r-222@8g7-njj-2kz,Starland Pizzeria & Pub,,33.958582,-83.376584,"Bar or Pub,Late Night",,
222-223@8gd-qbv-zpv,Midnight Sun Bourbon & Chocolate Lounge,,32.083768,-81.085523,"Bar or Pub,Cocktail Lounge,Late Night",,
223-222@8g7-46z-2zf,Swinging Richards,,33.792882,-84.408155,"Adult Entertainment,Bar or Pub,Gay Bar,Late Night",,2022-04
zzw-222@8g6-ytj-5xq,Theory Restaurant & Lounge,,33.942216,-84.126189,"Bar or Pub,Cocktail Lounge,Late Night",,
zzy-222@8g7-26m-hkf,New World Bar Cafe,,34.035142,-83.981575,"Bar or Pub,Late Night",,
223-222@8g6-ykz-q4v,Montie's Public House,,33.836454,-84.335979,"Bar or Pub,Late Night,Sports Bar",,2020-01
222-223@8g6-x6q-2zf,Echelon 3000 Ultra Bistro,,33.76135,-84.198776,"American Food,Dance Club,Late Night",,2020-01
224-222@8g7-46z-68v,McCray's Tavern Midtown,,33.786008,-84.387591,"American Food,Bar or Pub,Late Night,Sports Bar",,
zzw-223@8gm-dzp-7nq,The Curious Pig,,33.39421,-84.593996,"American Food,Bar or Pub,Cocktail Lounge,Late Night",,
222-222@8gm-dsz-nbk,Murphy's Sports Pub,,33.399204,-84.754048,"Bar or Pub,Late Night,Sports Bar",,2020-01
zzw-222@8g7-49b-xyv,Club Blaze,,33.656429,-84.333876,Late Night,,
zzy-229@8gp-v8v-q2k,The Crab Market & Cafe,,31.370263,-81.433041,"Bar or Pub,Late Night,Sports Bar",,
222-222@8gd-q2w-9xq,Mutuals Club,,32.050827,-81.104507,"Bar or Pub,Comedy Clubs,Late Night",,2020-01
225-222@8g7-474-5cq,Club Venus,,33.792852,-84.367933,Late Night,,2020-01
228-222@8g7-njn-dgk,Buddha,,33.958315,-83.373422,"Bar or Pub,Late Night",,
222-222@8g8-5by-nh5,Hortons'rendezvous,,33.065964,-84.142383,Late Night,,
zzw-223@8g7-8j6-9xq,Kimberly's Country Cookin',,33.481233,-82.505191,"BBQ and Southern Food,Cafeteria",,2020-01
zzw-222@8g6-ykz-9zz,Stagecoach,,33.841035,-84.380513,"Bar or Pub,Late Night",,
225-223@8g7-2m8-52k,European Sports Cafe,,33.943213,-83.992832,"Bar or Pub,Chicken Wings,Cocktail Lounge,Late Night,Sports Bar",,
zzw-223@8g6-y3h-z2k,37 Main,,34.032799,-84.187945,"Bar or Pub,Dance Club,Late Night",,2021-10
227-222@8gb-rqj-3nq,Natalie Jane's,,34.511665,-83.52829,"American Food,Bar or Pub,Coffee Shop,Late Night",,2020-01
222-224@8gd-hmt-b6k,The Tavern,,32.143899,-81.248564,"Bar or Pub,Hookah,Late Night",,2020-02
223-222@8g6-zbq-c89,Ricky D's,,33.595957,-83.466756,"American Food,Bar or Pub,Late Night,Wine Bar",,2022-12
22g-222@8g7-474-dqf,Eclectic Bistro & Bar,,33.793402,-84.372286,"American Food,Bar or Pub,Cocktail Lounge,Late Night",,2020-01
zzw-222@8g6-y4w-jqf,Moon Lounge,,34.02265,-84.362234,"Bar or Pub,Cocktail Lounge,Hookah,Late Night",,2020-01
222-222@8g6-x74-249,Secrets Lounge,,33.819957,-84.228356,"Bar or Pub,Late Night",,2020-01
222-222@8g8-bhs-f4v,Pure Restaurant & Lounge,,32.227565,-82.381981,"Bar or Pub,Cocktail Lounge,Late Night",,
222-222@8g6-y4w-4sq,Andretti Indoor Karting & Games Roswell,,34.047473,-84.340508,Arcades,,2022-12
224-222@8g6-yvg-28v,Karaoke Melody,,33.919501,-84.255773,"Bar or Pub,Cocktail Lounge,Karaoke,Late Night",,
224-223@8g6-pzs-v4v,Top Dawg Growlers,,33.118317,-83.260392,"Bar or Pub,Late Night",,2020-01
22f-222@8g6-t85-r8v,Grants Lounge,,32.834773,-83.629992,"Bar or Pub,Cocktail Lounge,Late Night",,
zzw-222@8gb-ryz-kvf,Mule Camp Tavern,,34.298306,-83.828508,"Bar or Pub,Burgers,Late Night,Pool and Billiards",,2021-11
22b-222@8gj-g7k-x5z,Legend Lounge & Club,,31.576632,-84.135827,"Dance Club,Late Night",,
22d-222@8g7-njj-2kz,Bar South,,33.958862,-83.37708,"Bar or Pub,Late Night,Pool and Billiards,Sports Bar",,
222-222@8g7-4p9-fzz,Highland Arms,,33.605247,-84.436676,"Bar or Pub,Late Night",,2022-01
zzw-224@8g7-477-xwk,Georgia Local Craft,,33.75544,-84.400831,"Bar or Pub,Late Night",,
zzw-222@8g7-47b-g8v,The League Tavern,,33.764285,-84.387825,"Bar or Pub,Late Night,Sports Bar",,2020-01
224-223@8g6-x45-6kz,Six Ways 2 Sunday,,33.641379,-84.015727,"Bar or Pub,Karaoke,Late Night",,2020-01
22r-222@8gd-q2j-s3q,The Black Rabbit,,32.0641,-81.100155,"Bar or Pub,Late Night",,
226-223@8g7-474-hyv,Sutra Lounge,,33.785769,-84.384517,"Bar or Pub,Cocktail Lounge,Dance Club,Late Night",,
zzw-227@8g7-4cs-xdv,Rande Voo Restaurant Lounge,,33.798585,-84.512785,"Bar or Pub,Cocktail Lounge,Hookah,Late Night",,
223-222@8gb-rz7-hh5,787 Hacienda,,34.278242,-83.83756,"Bar or Pub,Dance Club,Late Night,Sports Bar,Truck or Cart",,
226-222@8g7-hh4-pqf,Wings N Things Bar & Grill,,33.737802,-82.740464,"Bar or Pub,Late Night",,2023-02
225-223@8gd-pwz-cbk,Deb's Bar,,32.008452,-81.116315,"Bar or Pub,Cocktail Lounge,Dive Bar,Late Night,Sports Bar",,
222-222@8g7-477-xqz,Resturant 10,,33.754962,-84.403269,"American Food,BBQ and Southern Food,Bar or Pub,Cocktail Lounge,Late Night",,
227-222@8gb-4gc-zvf,5th Quarter Pub,,34.765113,-84.968086,"Bar or Pub,Late Night,Sports Bar",,2020-01
zzw-222@8g8-4g5-h5z,Strippers,,32.606628,-83.750256,"Adult Entertainment,Late Night",,
222-222@8g6-ym8-dgk,The Heretic,,33.811564,-84.355288,"Bar or Pub,Dance Club,Gay Bar,Late Night",,
zzw-22g@8gd-q2q-cbk,O'connell's Pub,,32.078923,-81.090605,"Bar or Pub,Late Night",,
22f-224@8g6-ykx-jn5,Aura Lounge,,33.836671,-84.377068,"Bar or Pub,Cocktail Lounge,Hookah,Late Night",,2022-10
22g-222@8g7-46k-dvz,The T,,33.741814,-84.368531,"Bar or Pub,Gay Bar,Late Night",,
zzw-222@8g6-ynx-zs5,Stem Wine Bar,,33.979799,-84.428353,"American Food,Bar or Pub,Late Night,Tapas,Wine Bar",,
223-222@8g8-bh6-sh5,The Red Stag Tavern,,32.201823,-82.358069,"Bar or Pub,Late Night",,
225-222@8g6-y2n-btv,Cordell's Restaurant Bar & Nightlife,,34.037942,-84.296313,"Bar or Pub,Late Night,Sports Bar",,2020-03
zzw-22d@8gd-q2q-cbk,The Ordinary Pub,,32.079489,-81.094919,"American Food,Bar or Pub,Cocktail Lounge,Late Night",,
zzw-223@8gp-4wp-q2k,The Twisted Anchor,,30.753187,-81.577296,"Bar or Pub,Dive Bar,Late Night,Pool and Billiards",,2020-02
zzw-222@8gn-jch-p7q,Belloo's Martini and Cigar Bar,,32.463059,-84.994303,"Bar or Pub,Cocktail Lounge,Late Night",,2020-07
226-222@8g6-ycy-hwk,Live Karaoke & Bar,,34.005073,-84.084661,"Bar or Pub,Karaoke,Late Night,Wine Bar",,2020-07
222-222@8g7-486-2ff,The Imperial,,33.766117,-84.306299,"Bar or Pub,Late Night",,
zzw-223@8g6-t5n-wrk,Northside Cheers,,32.898239,-83.694347,"American Food,Bar or Pub,Late Night",,
222-222@8gp-dv5-vzz,Dennis & Marty's,,31.240767,-82.37233,Late Night,,2020-01
226-222@8g6-t85-nt9,Macon's Dueling Piano Bar,,32.83735,-83.627664,Late Night,,
222-222@8g7-x5g-nbk,Springhill Country Club Dining,,31.453029,-83.581263,"Country Club,Diner",,
zzw-227@8g7-46n-cnq,M Bar & Lounge,,33.747766,-84.401787,"Bar or Pub,Cocktail Lounge,Late Night",,
225-222@8gb-pqk-26k,Caterpillar's Cave Hookah Lounge,,34.533339,-83.982578,"Bar or Pub,Hookah,Late Night",,2020-01
222-226@8g6-ybf-zj9,Vice Bar & Bistro,,34.039139,-84.054696,"Bar or Pub,Cocktail Lounge,Hookah,Late Night,Tapas",,
229-224@8gd-q2n-kj9,Peregrin,,32.075257,-81.091582,"Bar or Pub,Late Night",,
zzw-223@8g7-4p8-rp9,The Grande Fumee Cigar Lounge,,33.606479,-84.436003,"Bar or Pub,Cigars,Late Night",,
zzw-224@8g6-ypc-b8v,Marlow's Tavern,Marlow's Tavern,34.034206,-84.465378,"American Food,Bar or Pub,Casual Dining,Dinner,Drinks,Lunch",,
zzy-222@8gd-nhp-wx5,Four Seasons Lounge,,31.846042,-81.596188,Late Night,,
224-223@8g7-453-kmk,Joey's Bar & Grill D'ville,,33.747041,-84.700492,"Bar or Pub,Late Night,Music Venue,Sports Bar",,2020-01
229-223@8gd-q2n-m49,The Peacock Lounge,,32.079788,-81.093008,"Bar or Pub,Cocktail Lounge,Late Night",,
223-223@8g6-yky-vxq,The Blind Pig Parlour Bar,,33.842418,-84.383025,"Bar or Pub,Cocktail Lounge,Late Night",,
22b-222@8g6-ycf-dn5,Truck & Tap Duluth,,34.002648,-84.14544,"Bar or Pub,Late Night,Truck or Cart",,
223-222@8g6-yqg-mff,Kayhill's Sports Bar & Grill,,33.968471,-84.487356,"Bar or Pub,Cocktail Lounge,Late Night,Pool and Billiards,Sports Bar",,2021-10
zzw-225@8gb-6zs-6kz,Fire & Ice Sports Bar Lounge,,34.028861,-84.627492,"Bar or Pub,Cocktail Lounge,Late Night",,2020-01
229-222@8gn-jcg-cdv,Carousel Lounge,,32.438011,-84.960244,Late Night,,
zzw-222@8g7-bf7-ct9,Rendezvous At Three,,33.437337,-82.007242,"Bar or Pub,Cocktail Lounge,Gourmet,Late Night",,
222-224@8gq-2zf-dn5,Harrys Roof Top Bar,,31.046532,-81.411416,"Bar or Pub,Cocktail Lounge,Late Night",,
zzw-222@8g7-26w-4gk,The Blue Caterpillar Hookah Lounge,,34.120185,-84.005621,"Bar or Pub,Coffee Shop,Hookah,Late Night",,2020-01
22x-223@8g7-njn-d9z,Wall Street North,,33.957763,-83.37413,"Bar or Pub,Late Night",,2020-12
228-222@8g6-y43-ygk,MF Bar,,34.071013,-84.273455,"Bar or Pub,Cocktail Lounge,Japanese Food,Late Night,Sushi",,
zzw-222@8gm-dzp-4vz,Smokey Bones,Smokey Bones,33.397365,-84.593426,"American Food,Burgers,Catering,Dinner,Late Night,Lunch,Steak House",,
zzw-222@8g6-yth-wrk,Prime Bar & Lounge,,33.952874,-84.132477,"Bar or Pub,Karaoke,Late Night,Sports Bar",,2021-10
226-222@8g6-ykz-7kf,Prohibition,,33.843113,-84.380977,"Bar or Pub,Cocktail Lounge,Jazz and Blues,Late Night",,2020-01
222-222@8g7-bf6-nbk,Club Argos,,33.475936,-82.001621,"Bar or Pub,Gay Bar,Late Night",,2020-01
zzw-226@8g7-485-54v,Likewise,,33.772726,-84.365536,"Bar or Pub,Cocktail Lounge,Late Night",,2021-01
222-223@8gd-q2q-8jv,The Lost Square,,32.083029,-81.095691,"Bar or Pub,Cocktail Lounge,Late Night",,
225-223@8g6-ym8-mhq,Opus 1,,33.817441,-84.352599,"Bar or Pub,Dive Bar,Gay Bar,Late Night",,2021-10
zzw-224@8g6-t85-r6k,Daiquiris & More,,32.836793,-83.628447,"Bar or Pub,Chicken Wings,Cocktail Lounge,Hookah,Late Night",,
zzw-225@8g6-ytb-gp9,Sound of Music,,33.959973,-84.131513,"Bar or Pub,Cocktail Lounge,Karaoke,Korean Food,Late Night",,
zzw-222@8g7-46q-9xq,Cold Beer,,33.754048,-84.365768,"American Food,Bar or Pub,Cocktail Lounge,Late Night",,2022-04
222-222@8gb-jgw-3h5,King Ludwigs Biergarten,,34.701489,-83.730937,"Bar or Pub,German Food,Late Night,Music Venue",,
244-222@8g7-46z-6ff,Foxtrot Liquor Bar,,33.785559,-84.386009,"Bar or Pub,Late Night",,2022-07
zzw-222@8g7-2bq-kpv,Apa Northeast Georgia,,33.983458,-83.619395,"Late Night,Pool and Billiards",,
zzw-225@8g6-yjj-gtv,Living Room,,33.868027,-84.302077,"Bar or Pub,Cocktail Lounge,Late Night",,
22k-222@8g7-bfw-j9z,The Soul Bar,,33.47629,-81.969625,"Bar or Pub,Late Night",,
zzy-22f@8gd-q2q-8n5,Plant Riverside District,,32.083707,-81.095807,"Bar or Pub,Cocktail Lounge,Late Night",,
zzy-222@8g6-yjj-x3q,The lions restaurant & Hookha lounge,,33.858873,-84.309174,"Bar or Pub,Cocktail Lounge,Hookah,Late Night",,
225-222@8g6-y4q-8d9,Vin 25,,34.026819,-84.360497,"American Food,Bar or Pub,Late Night,Wine Bar",,
229-223@8g6-ycs-gkz,Beau Monde Cigar Bar,,34.072139,-84.204057,"Bar or Pub,Cigars,Cocktail Lounge,Hookah,Late Night",,
227-222@8gp-vtf-33q,Murphy's Tavern,,31.137687,-81.395282,"Bar or Pub,Late Night",,
225-222@8g7-2pg-835,Sportsline Bar and Grill,,33.967813,-84.033253,"Bar or Pub,Late Night,Sports Bar",,
223-222@8gm-g2d-8jv,Lucky Dawg Sports Bar & Grill,,33.818832,-84.813355,"American Food,Bar or Pub,Karaoke,Late Night,Sports Bar",,
222-222@8g7-47d-xqz,MC Entertainment & Services,,33.735105,-84.305712,Late Night,,
222-222@8gb-7gv-3qz,Horned Owl Brewing,,34.02108,-84.615162,"Bar or Pub,Beer Garden,Brewery or Brewpub,Late Night",,
227-222@8g7-48y-ty9,BUZZ Coffee and Winehouse,,33.722258,-84.464443,"Bar or Pub,Coffee Shop,Late Night,Sandwich Shop,Wine Bar",,
zzw-223@8g7-46r-7yv,Joystick Gamebar,,33.754153,-84.373663,"Arcades,Bar or Pub,Cocktail Lounge,Dive Bar,Late Night",,
222-222@8gm-jpf-wrk,Moss Creek Clubhouse,,33.086271,-85.046129,Late Night,,
zzw-222@8gb-7gw-pd9,Sidelines Sports Grille,,34.009642,-84.57602,"Bar or Pub,Late Night,Sports Bar",,
222-222@8g7-4gv-vzz,The Green Manor Lounge,,33.580405,-84.551676,"Bar or Pub,Cocktail Lounge,Late Night",,
zzw-22c@8g7-njh-zj9,Paloma Park,,33.958364,-83.379236,"Bar or Pub,Cocktail Lounge,Late Night,Tapas",,
22f-222@8gd-q2n-kxq,The Jinx,,32.079961,-81.093636,"Bar or Pub,Late Night",,2021-10
223-222@8g7-46s-dn5,Red's Beer Garden,,33.718361,-84.368127,"Beer Garden,Late Night",,
225-222@8g6-ycf-dn5,Gwen Tajz Wine Bar,,34.002668,-84.145207,"Bar or Pub,Late Night,Wine Bar",,
22c-223@8gn-jbh-m6k,18th Amendment,,32.465979,-84.992925,"Bar or Pub,Cigars,Late Night",,
zzw-223@8g7-484-7wk,The Bookhouse Pub,,33.774406,-84.362691,"Bar or Pub,Late Night",,
223-222@8g6-xg8-jn5,Eastside Station,,33.850785,-84.042485,"Bar or Pub,Late Night,Sports Bar",,
22v-222@8g7-njj-2rk,Sand Bar,,33.959048,-83.375526,"Bar or Pub,Late Night",,
222-222@8g7-4c9-73q,PBR Atlanta A Coors Banquet Bar,,33.889723,-84.469572,"Bar or Pub,Late Night,Sports Bar",,
22c-222@8g6-ykz-975,Biltong Bar,,33.838405,-84.378231,"American Food,Bar or Pub,Cocktail Lounge,Late Night",,2022-01
222-222@8g6-ykz-zfz,Cream Ultra Lounge,,33.841088,-84.329761,"Bar or Pub,Cocktail Lounge,Dance Club,Late Night",,2020-01
zzw-223@8g7-46q-bp9,Guac y Margys,,33.755588,-84.365598,"Bar or Pub,Cocktail Lounge,Late Night",,
226-222@8g7-43k-mhq,Rooted Trading,,33.859315,-84.684146,"Bar or Pub,Bike Rentals,Late Night",,
zzw-222@8gp-dh7-qj9,Blueberry Plantation Country Club & Inn,,31.538877,-82.495136,Country Club,,
zzw-223@8gb-79b-zxq,Buds Sports Bar,,33.882487,-84.730466,"Bar or Pub,Late Night,Sports Bar",,2020-01
22h-222@8g6-x93-fzz,Leon's Full Service,,33.775387,-84.295164,"American Food,Bar or Pub,Cocktail Lounge,Late Night",,
222-222@8g7-479-sdv,Mary Mac's Tea Room,,33.772839,-84.380001,"BBQ and Southern Food,Bar or Pub,Late Night",,
22c-222@8g7-njj-2x5,The Roadhouse,,33.957722,-83.377199,"Bar or Pub,Dive Bar,Late Night",,
223-225@8g6-x93-fxq,Paper Plane,,33.774256,-84.295184,"American Food,Bar or Pub,Cocktail Lounge,Late Night",,2020-01
26y-222@8g7-479-wx5,Midcity Cafe,,33.777847,-84.387721,"Bar or Pub,Cafe,Late Night",,
222-222@8gm-dzn-8qf,Grinds and Wines,,33.408047,-84.600683,"Bar or Pub,Late Night,Wine Bar",,
zzw-224@8g6-y4w-pd9,Tap & Six,,34.01935,-84.360778,"Bar or Pub,Late Night",,2021-10
228-223@8g7-njq-w6k,The Root,,33.939005,-83.386164,"Bar or Pub,Late Night",,
222-222@8g7-2cq-yy9,Local Station,,34.108909,-83.763099,"American Food,Bar or Pub,Cocktail Lounge,Late Night",,
228-222@8gd-qbw-2x5,Abe's on Lincoln,,32.079629,-81.088396,"Bar or Pub,Late Night",,
229-222@8g6-x3z-fvf,Hott Ashes II Cigar Lounge,,33.692781,-84.087575,"Bar or Pub,Cocktail Lounge,Late Night",,2020-01
zzw-222@8g8-bq7-v9f,Frank's Pool Hall,,32.022245,-82.468666,"Late Night,Pool and Billiards",,
225-223@8g6-ty2-8vz,Cashman's Pub,,32.834228,-83.625689,"Bar or Pub,Chicken Wings,Late Night,Music Venue",,
225-222@8gm-d53-z2k,Johnny's Bar,,33.743844,-85.28772,"Bar or Pub,Dive Bar,Late Night",,
zzw-222@8g7-kc8-5mk,Rocky Branch Lounge,,33.757522,-82.339525,Late Night,,
222-223@8g7-472-mzf,Scores Atlanta Gentlemen's Club,,33.801777,-84.407203,Late Night,,
zzy-22k@8gd-q62-jsq,The Sand Bar,,31.992764,-80.848886,"Bar or Pub,Late Night,Pool and Billiards",,
zzw-222@8g7-46z-snq,The Northside Tavern,,33.783605,-84.412032,"Bar or Pub,Dive Bar,Jazz and Blues,Late Night",,
zzw-225@8gb-6zv-j5f,Oasis Cafe and Hookah Lounge,,34.042299,-84.603177,"Bar or Pub,Dance Club,Hookah,Late Night,Mediterranean Food",,2020-01
222-222@8g6-tnx-5cq,Whiskey River,,32.777753,-83.660729,"Bar or Pub,Late Night",,2020-01
226-222@8gm-f5x-dqf,Demoe's Restaurant & Lounge,,33.513884,-84.665139,Late Night,,2020-01
227-222@8gd-q2q-c89,Rogue Water Tap House,,32.080778,-81.096856,"Bar or Pub,Late Night",,
222-222@8g6-ytk-mc5,Zero Bar,,33.961984,-84.13917,"Bar or Pub,Late Night,Sports Bar",,2021-10
222-222@8g6-xr8-bp9,Seven Sports Bar & Lounge,,33.549828,-84.273473,"Bar or Pub,Cocktail Lounge,Late Night",,
zzw-222@8g7-477-vj9,AMG Lounge,,33.755452,-84.400847,"Bar or Pub,Cocktail Lounge,Late Night",,
227-222@8g7-84x-kj9,Surreal At Surrey,,33.486159,-82.030957,"Bar or Pub,Cocktail Lounge,Dance Club,Late Night",,2020-01
235-222@8g7-474-nbk,Blake's On The Park,,33.781638,-84.379905,"Bar or Pub,Gay Bar,Late Night",,
223-222@8gm-frz-435,Cinema Tavern Sports Bar & Grill,,33.731749,-84.92014,"American Food,Bar or Pub,Karaoke,Late Night,Sports Bar",,
zzw-222@8gj-9n9-d7q,Cream of the Crop Cafe and Wine Bar,,30.78489,-84.050384,"Bar or Pub,Dessert,Gelato Shop,Late Night,Wine Bar",,2022-03
22c-222@8g6-t85-qxq,Bearfoot Tavern,,32.835574,-83.629389,"Bar or Pub,Beer Garden,Burgers,Late Night",,
223-222@8g6-yv6-5mk,Stars Blvd Karaoke,,33.93028,-84.220567,"Bar or Pub,Karaoke,Late Night",,2019-07
zzw-224@8g7-479-xbk,Marlow's Tavern,Marlow's Tavern,33.779678,-84.387478,"American Food,Bar or Pub,Casual Dining,Dinner,Drinks,Lunch",,
225-222@8g6-ym8-rkz,RH Brands,,33.806885,-84.344614,Late Night,,
22g-222@8g6-xmw-9mk,Jazzy Brown's Jazz Cafe,,33.452269,-84.167341,"Bar or Pub,Jazz and Blues,Late Night,Music Venue,Wine Bar",,2020-01
222-222@8g7-4r7-s3q,Metro Sports Bar,,33.51621,-84.429584,"Late Night,Pool and Billiards",,2020-01
zzw-222@8gj-gh8-jsq,Little Whiskey River,,31.573749,-84.076857,"Bar or Pub,Late Night",,2021-10
223-222@8gd-q3y-wtv,Bootleggers,,32.108784,-81.234435,"Bar or Pub,Late Night,Sports Bar",,
222-222@8g6-yjx-49z,Three Sheets,,33.919884,-84.383568,"Bar or Pub,Cocktail Lounge,Late Night",,2021-10
22p-222@8g7-2m7-kvf,Exhibit Ale,,33.956287,-83.987163,"Bar or Pub,Late Night",,
226-222@8g6-yk3-bkz,Velvet Room,,33.886663,-84.256016,"Dance Club,Late Night",,2022-01
zzw-223@8gb-jkv-v75,Amelia's Cafe,,34.879519,-83.955679,"Bar or Pub,Cafe,Late Night",,
222-222@8g7-484-hqz,Tiki Iniki Atlanta,,33.776842,-84.353076,"Bar or Pub,Cocktail Lounge,Late Night",,2022-12
227-222@8g7-njj-33q,Cutters Pub,,33.957953,-83.376666,"Bar or Pub,Late Night",,
zzw-222@8g7-4rh-bhq,Wraith ATL,,33.618514,-84.474027,"Bar or Pub,Cocktail Lounge,Late Night",,
zzw-223@8gd-q2q-c3q,Five Oaks Taproom,,32.081515,-81.094494,"American Food,Bar or Pub,Brunch,Cocktail Lounge,Late Night",,
224-222@8gn-jbh-m8v,Billiards On Broad,,32.467222,-84.993508,Pool and Billiards,,
zzy-222@8g7-46q-jd9,Cast Iron,,33.761073,-84.365368,"American Food,Bar or Pub,Late Night,Wine Bar",,2020-07
zzw-222@8g6-x6r-fmk,Phase One,,33.789555,-84.230273,"Dance Club,Late Night",,
222-222@8gm-frv-6p9,Stix Bar & Grill,,33.729424,-84.937087,"Bar or Pub,Dance Club,Late Night,Pool and Billiards,Sports Bar",,
228-222@8g7-48z-pvz,Lee White,,33.729801,-84.418818,"Bar or Pub,Brewery or Brewpub,Late Night",,
223-226@8g6-ysb-v4v,JW's Sports Bar and Grill,,33.900078,-84.142759,"Bar or Pub,Late Night,Sports Bar",,2021-11
222-222@8g7-p2n-q9f,Pub On Main,,33.863766,-83.409085,"Bar or Pub,Late Night",,2021-10
22d-222@8g6-t85-r6k,Cherry Street Hookah,,32.836503,-83.62818,"Bar or Pub,Cocktail Lounge,Hookah,Late Night",,
223-223@8g7-48f-649,ATL Sports Bar 2,,33.702145,-84.399912,"Bar or Pub,Late Night,Sandwich Shop,Seafood,Sports Bar",,
225-222@8g7-4dr-nkf,Club Crucial,,33.776074,-84.468154,"Dance Club,Late Night",,2022-09
223-222@8g6-ymj-8qf,Coronet Club,,33.899072,-84.380705,Late Night,,2020-01
22k-223@8g6-x93-fzz,Truman Tavern,,33.77504,-84.295782,"Bar or Pub,Late Night",,2020-01
226-222@8g7-48t-7nq,Cru Hemp Lounge,,33.746537,-84.402995,"Bar or Pub,Cocktail Lounge,Hookah,Late Night",,
228-222@8g6-xhd-94v,Glow Bar ATL,,33.77659,-84.075649,"Bar or Pub,Cocktail Lounge,Hookah,Late Night",,
223-222@8g7-3yq-h89,Mardi Gras Sports Cafe,,33.687755,-84.455247,"Bar or Pub,Late Night,Sports Bar",,2020-01
22j-223@8gd-q2n-kvf,Mint to Be Mojito Bar and Bites,,32.078567,-81.092793,"Bar or Pub,Cocktail Lounge,Late Night",,
227-222@8g7-bfx-2kz,Riverfront Pub & Sports,,33.473741,-81.960008,"Late Night,Pool and Billiards",,
229-222@8g6-yjd-6hq,The Bat & Ball Pub,,33.892423,-84.325403,"Bar or Pub,Late Night",,
22g-222@8gd-q2q-c5z,The Crypt Pub,,32.07972,-81.095856,"Bar or Pub,Late Night",,2020-01
223-223@8g7-2mp-j35,Apple Lounge,,34.032642,-84.049849,"Bar or Pub,Cocktail Lounge,Hookah,Late Night",,2021-11
zzy-222@8gj-hg3-zs5,Club 118,,31.90372,-84.252519,"Dance Club,Late Night",,
222-222@8gp-vtf-389,Village Inn and Pub,,31.137705,-81.39472,"Bar or Pub,Late Night",,
zzw-224@8g6-ykw-w49,Havana Club ATL,,33.840784,-84.370638,"Bar or Pub,Cocktail Lounge,Dance Club,Late Night",,
226-222@8g6-ykz-b49,Five Paces Inn,,33.841613,-84.380279,"Bar or Pub,Dive Bar,Late Night,Music Venue",,
zzw-222@8g7-438-pn5,B3 Bar and Grill,,33.813879,-84.627225,"Bar or Pub,Late Night,Music Venue,Pool and Billiards",,2021-10
zzw-222@8g6-yjr-f4v,The Dunwoody Restaurant Group,,33.946002,-84.332232,"Bar or Pub,Late Night",,
zzw-222@8gb-6rx-2tv,unWine'd & Tap Marietta,,34.037621,-84.774482,"Bar or Pub,Late Night,Tapas,Wine Bar",,
229-22b@8g6-ykz-9xq,Sanctuary,,33.842743,-84.381678,"Dance Club,Late Night",,
22b-222@8gd-pws-3nq,Aqua Vitae Lounge,,32.03017,-81.095237,"Bar or Pub,Late Night",,
222-222@8g8-bhq-p5f,Earnie's Lounge,,32.228606,-82.418303,Late Night,,
223-222@8g7-472-cdv,The Loft,,33.797253,-84.417998,"Dance Club,Late Night",,
229-223@8g7-475-x5z,The Green Room Actor's Lounge,,33.811791,-84.393311,"Bar or Pub,Cocktail Lounge,Late Night",,2020-01
228-222@8g6-x6q-4d9,Jay's Place,,33.76309,-84.195103,"Bar or Pub,Late Night,Sports Bar",,2020-01
22j-222@8gd-q2n-kxq,Barrelhouse South,,32.079932,-81.093552,"Bar or Pub,Late Night,Sports Bar",,
222-223@8g7-46n-tjv,The Basement,,33.739993,-84.346683,"Dance Club,Late Night",,
222-222@8g7-223-mhq,The Oasis Tavern,,33.996531,-83.790416,"Bar or Pub,Karaoke,Late Night,Pool and Billiards",,2022-05
224-222@8gb-7gm-sbk,Monkey Barrel,,33.952845,-84.572795,"Bar or Pub,Late Night,Sports Bar",,
zzw-222@8g6-yjh-v75,Temptation Cafe And Hookah Lounge,,33.867137,-84.308964,"Bar or Pub,Hookah,Late Night",,2022-06
224-223@8gb-q5n-cdv,Beer Me,,34.185505,-83.926642,"Bar or Pub,Late Night",,
zzw-224@8g7-46r-c3q,Puff & Petals Lounge,,33.754228,-84.375644,"Bar or Pub,Cocktail Lounge,Late Night,Tapas",,2020-01
223-222@8g7-4c8-xt9,Garden & Gun Club,,33.888982,-84.468137,"American Food,BBQ and Southern Food,Bar or Pub,Cocktail Lounge,Late Night",,
229-222@8g7-bfw-j5f,Metro A Coffeehouse,,33.476853,-81.971052,"Bar or Pub,Coffee Shop,Late Night",,
222-222@8g6-ymt-z4v,Josephine Lounge,,33.841307,-84.328162,"Bar or Pub,Cocktail Lounge,Late Night",,
222-222@8gp-f4m-wff,Oak Plaza Lounges,,31.310131,-82.241886,Late Night,,
223-222@8gb-58m-yqf,Billy's Place,,34.011092,-85.264738,Late Night,,2020-01
22n-223@8g7-njj-2kz,8E's,,33.958699,-83.376826,"Bar or Pub,Cocktail Lounge,Late Night",,2020-01
226-222@8g6-ykz-6zf,Lost Dog Tavern,,33.842017,-84.379293,"Bar or Pub,Late Night,Sports Bar",,
zzw-229@8g6-yjx-gc5,Meehan's Public House Sandy Springs,,33.920731,-84.383335,"Bar or Pub,Irish Pub,Late Night",,2023-02
222-223@8gb-jgw-3h5,The Wurst House,,34.701519,-83.731107,"Bar or Pub,Late Night",,
223-222@8g7-n3g-gkz,Pickle Barrel Cafe & Sports Pub Greensboro,,33.463906,-83.241069,"Bar or Pub,Cafe,Late Night,Sandwich Shop,Sports Bar",,2022-12
222-222@8g7-2k6-sbk,Summit Chase Country Club,,33.851158,-83.962513,Country Club,,
223-222@8gp-wpb-ty9,Jesup Billiards,,31.606839,-81.886668,Pool and Billiards,,
224-222@8gd-q2q-8qf,Chuck's Bar,,32.08271,-81.094273,"Bar or Pub,Late Night",,2020-01
224-223@8g7-46z-6ff,Tiki Tango Hideaway Oasis,,33.785515,-84.3857,"Bar or Pub,Cocktail Lounge,Late Night",,2022-10
222-224@8gq-2zg-mp9,The Rah Bar,,31.05832,-81.42377,"Bar or Pub,Late Night",,2020-01
222-223@8g6-tpk-52k,Big Boy Lounge,,32.80383,-83.695816,Late Night,,2020-01
223-222@8g6-yps-mhq,Moustache Hookah Bar,,33.970624,-84.358533,"Bar or Pub,Hookah,Late Night",,
zzw-222@8gb-qhg-qj9,The Boro Inn,,34.867021,-84.324247,"Bar or Pub,Irish Pub,Late Night",,
zzw-224@8gj-g7j-2x5,Manor House Pub,,31.587405,-84.186055,"Bar or Pub,Late Night",,
zzw-225@8g6-ytk-st9,Do Re Mi Karaoke,,33.970316,-84.143326,"Karaoke,Late Night",,
222-222@8gb-6r6-jd9,Fish Thyme,,34.050442,-84.663381,"American Food,Bar or Pub,Cafe,Late Night,Seafood,Wine Bar",,
zzw-222@8gd-q2n-j35,Mcdonough's Restaurant & Lounge,,32.075325,-81.092242,"Bar or Pub,Karaoke,Late Night,Sports Bar",,
222-222@8g6-t76-z4v,C J's Bar & Grill,,32.880919,-83.669606,"Bar or Pub,Late Night,Sports Bar",,2020-01
zzw-222@8gb-6zk-9s5,Bar North,,34.049243,-84.622873,"American Food,Bar or Pub,Burgers,Chicken Wings,Late Night,Sports Bar",,
242-224@8g7-477-4jv,Studio No 7,,33.763638,-84.397102,"Bar or Pub,Cocktail Lounge,Late Night",,2022-12
22c-222@8g6-yjw-bff,Beer & Wine Craft,,33.924638,-84.383201,Brewing Supplies,,
zzw-223@8g6-ykk-v75,SportsTime2 Bar & Grille,,33.942503,-84.269611,"American Food,Bar or Pub,Late Night,Sports Bar",,
222-225@8g6-yvg-y35,Espacio Discotheque Atl,,33.907298,-84.20148,"Dance Club,Late Night",,
223-222@8g6-ytm-brk,Encore KTV Lounge,,33.952248,-84.140693,"Bar or Pub,Cocktail Lounge,Dance Club,Karaoke,Late Night",,
222-222@8gp-vtk-gff,Marsh Point Bar & Grill,,31.163346,-81.38982,"Bar or Pub,Dive Bar,Late Night",,2022-07
223-222@8gj-gm7-zmk,Riverfront Entertainment District,,31.633183,-84.175079,"Bar or Pub,Late Night,Sports Bar",,2021-12
225-222@8g6-y43-yqf,Marlow's Tavern,Marlow's Tavern,34.071624,-84.276756,"American Food,Bar or Pub,Casual Dining,Dinner,Drinks,Lunch",,
22c-222@8g7-njn-dd9,Flanagan's Bar,,33.959053,-83.374553,"Bar or Pub,Late Night",,
224-222@8g7-n53-nwk,44 Draft House Growler Bar,,33.438912,-83.264264,"Bar or Pub,Late Night",,
227-222@8g7-46n-9j9,B 142 Bar & Lounge,,33.750496,-84.3927,"Bar or Pub,Cocktail Lounge,Hookah,Late Night",,2020-01
22v-222@8gd-qbw-33q,O'Connell's,,32.078845,-81.090676,"Bar or Pub,Late Night",,
22d-222@8gd-pyh-389,Ritzy Lounge,,31.981858,-81.147078,"Bar or Pub,Late Night",,2020-01
zzw-222@8gd-q2n-j5f,Husk Savannah,,32.077323,-81.09325,"BBQ and Southern Food,Bar or Pub,Cocktail Lounge,Dessert,Late Night",,
zzy-222@8g7-46t-w6k,Press Start,,33.736935,-84.385473,"Arcades,Asian Food,Bar or Pub,Cocktail Lounge,Late Night",,
226-222@8g6-y4h-8qf,Marlow's Tavern,Marlow's Tavern,33.949924,-84.335002,"American Food,Bar or Pub,Casual Dining,Dinner,Drinks,Lunch",,
zzy-22j@8gd-q2q-8n5,Baobab Lounge,,32.083697,-81.095811,"African Food,Bar or Pub,Cocktail Lounge,Late Night",,
22b-225@8g7-484-7yv,The Rooftop,,33.773522,-84.361368,"Bar or Pub,Late Night",,
zzw-228@8g7-474-j35,Bar Margot,,33.786437,-84.385483,"Bar or Pub,Cocktail Lounge,Late Night,Music Venue",,
223-222@8g7-n4y-rx5,Watering Hole of Lake Oconee,,33.427743,-83.273219,"Bar or Pub,Late Night",,
226-222@8gb-7ct-2zf,Big Al's Down the Hatch Saloon,,33.989328,-84.962557,"Bar or Pub,Late Night",,
zzw-222@8g6-tnx-dd9,L & W Sports Center,,32.780779,-83.664663,"Bar or Pub,Karaoke,Late Night,Pool and Billiards,Sports Bar",,
223-222@8gm-jp3-7dv,Country's Barbecue,,33.038977,-85.033124,"BBQ and Southern Food,Catering",,
zzy-223@8g7-37t-nbk,Soho Sports Bar,,33.422026,-84.172891,"Bar or Pub,Late Night,Sports Bar",,
zzw-222@8g6-xn3-w6k,Charlies's Sports Bar,,33.528679,-84.19834,Late Night,,
222-226@8g6-yjy-8sq,The Brass Tap,The Brass Tap,33.924665,-84.335592,"American Food,Bar or Pub,Casual Dining,Dinner,Lunch",,
zzw-225@8g6-y4r-djv,Pinkies Up,,34.047031,-84.359364,"Bar or Pub,Late Night,Wine Bar",,
229-222@8g7-46r-7t9,Sister Louisa's Church of the Living Room & Ping Pong Emporium,,33.754473,-84.372291,"Bar or Pub,Late Night",,
222-222@8gp-gv3-8jv,Moody Field Club,,30.975541,-83.20623,"Bar or Pub,Late Night",,
22j-226@8g7-46q-bc5,The James Room,,33.756285,-84.365458,"Bar or Pub,Cafe,Cocktail Lounge,Late Night",,
223-222@8gb-6y3-92k,Tavern,,34.089969,-84.579348,"Bar or Pub,Late Night,Sports Bar",,2020-01
225-222@8gb-pwy-gp9,Tam's Backstage,,34.208174,-84.136641,"American Food,Bar or Pub,Late Night,Wine Bar",,
zzw-222@8g6-y39-nt9,Fairway Social,,34.068955,-84.297011,,,
224-223@8g7-477-6zf,Der Biergarten,,33.762062,-84.396748,"Beer Garden,German Food,Late Night",,
222-223@8g7-4qc-4qf,Sharp's Bar,,33.571185,-84.372789,"Bar or Pub,Late Night",,2020-01
zzw-227@8g6-ymn-m49,Scenario,,33.871108,-84.379107,"American Food,Dance Club,Late Night",,2020-01
22f-222@8g7-2ft-yd9,Smokers Embassy Cigar bar,,34.123429,-83.827595,"Bar or Pub,Cigars,Cocktail Lounge,Late Night",,2021-11
222-222@8g6-ykr-5j9,Gilly's Sports Bar,,33.923513,-84.311379,"American Food,Bar or Pub,Late Night,Sports Bar",,
22f-222@8gd-q2n-p7q,The Original Pinkie Masters,,32.073674,-81.09259,"Bar or Pub,Late Night",,
224-222@8gj-jkd-nwk,Edd's Oyster Bar,,31.377807,-84.93165,"Bar or Pub,Late Night",,2020-01
223-222@8g6-x78-ysq,MoonShadow Tavern,,33.850671,-84.219045,"Bar or Pub,Late Night,Music Venue",,
222-222@8gq-2zf-dqf,Wee Pub Beach,,31.047152,-81.411833,"Bar or Pub,Irish Pub,Late Night",,
225-222@8g7-njg-9vf,Hedges On Broad,,33.957683,-83.373955,"Bar or Pub,Cocktail Lounge,Late Night,Music Venue",,2021-10
zzw-226@8g6-ym6-p7q,The Regent Cocktail Club,,33.837736,-84.380671,"Bar or Pub,Cocktail Lounge,Late Night",,2022-03
228-222@8gd-qbw-389,The District Cafe and Eatery,,32.078464,-81.089457,"Bar or Pub,Cafe,Late Night,Sandwich Shop",,2021-10
222-227@8g6-yqk-y5f,LeBuzz,,33.938592,-84.506241,"Bar or Pub,Cocktail Lounge,Gay Bar,Late Night",,2021-11
zzw-222@8g6-yt5-w49,Happy Hours,,33.910772,-84.114331,"Bar or Pub,Late Night",,
225-222@8g6-ym8-mhq,Sequel Atlanta,,33.817479,-84.352678,"Bar or Pub,Gay Bar,Late Night",,2021-10
zzw-222@8g7-4qp-fzz,Magnolia Lounge,,33.647729,-84.364447,"Bar or Pub,Late Night,Sports Bar",,
229-222@8g7-bfw-kfz,Bar On Broad,,33.476608,-81.967753,"Bar or Pub,Late Night",,
zzw-222@8g8-5w4-m6k,Rusty Buzzard,,32.901211,-84.322405,"Late Night,Pool and Billiards",,
225-222@8gd-q2q-8qf,Club 309 West,,32.082767,-81.094629,"Dance Club,Late Night",,2023-01
zzw-226@8g7-4c9-73q,Terrapin Taproom,,33.889853,-84.468453,"BBQ and Southern Food,Bar or Pub,Late Night",,
228-224@8g7-4pp-rkz,Radial Cafe College Park,,33.653529,-84.449785,"Bar or Pub,Brunch,Coffee Shop,Late Night",,2022-12
222-222@8g6-yhk-59f,Butcher & Brew,,34.110473,-84.222998,"American Food,Bar or Pub,Late Night",,
22f-223@8gd-q2q-8qf,Stafford's Public House,,32.082466,-81.094395,Late Night,,
zzw-222@8gb-54z-j5f,Sports Page,,34.231178,-85.158994,"Bar or Pub,Karaoke,Late Night,Sports Bar",,
224-225@8g7-46n-89z,Day Dreams,,33.750813,-84.396254,"Bar or Pub,Dance Club,Hookah,Late Night",,2020-07
225-222@8gj-g7g-gx5,Oglethorpe Lounge,,31.57557,-84.168906,Late Night,,
22j-227@8g7-46q-bc5,Pour Taproom Beltline,,33.756191,-84.365474,"Beer Garden,Late Night",,
22d-222@8g7-46m-jvz,Sidebar,,33.756813,-84.389831,"American Food,Bar or Pub,Brunch,Late Night",,
224-222@8g6-ycy-ht9,Ny Billiards,,34.004239,-84.084553,"Late Night,Pool and Billiards",,
zzw-222@8g7-4c6-b6k,Boone's,,33.814895,-84.405746,"American Food,Bar or Pub,Cocktail Lounge,Late Night",,
zzw-222@8g7-46r-7nq,Georgia Beer Garden,,33.754498,-84.373888,"BBQ and Southern Food,Beer Garden,Coffee Shop,Late Night",,
222-222@8g7-46q-f2k,Indigo Bar,,33.754146,-84.366976,"Bar or Pub,Cocktail Lounge,Late Night",,2020-01
zzw-223@8g7-4ps-td9,Finish Line Sports Bar,,33.660085,-84.425025,"Bar or Pub,Late Night,Sports Bar",,2021-12
zzw-222@8g7-53f-nh5,Hammer's Getaway,,33.384628,-83.901829,"Bar or Pub,Late Night,Sports Bar",,2020-01
223-225@8g7-474-kzz,Empire State South,,33.781436,-84.383662,"BBQ and Southern Food,Bar or Pub,Cocktail Lounge,Coffee Shop,Fine Dining,Late Night",,
222-222@8gj-jpy-ch5,Mintos Sports Bar & Grill,,31.02081,-84.900458,"Bar or Pub,Late Night,Sports Bar",,
22b-224@8g7-njj-33q,General Beauregard's,,33.958205,-83.376241,Late Night,,
zzw-224@8g7-njj-33q,Barcode,,33.958119,-83.37617,"Bar or Pub,Late Night",,2020-01
zzw-229@8gb-6zs-6kz,Luna Lounge,,34.028823,-84.627492,"Bar or Pub,Hookah,Late Night",,2019-11
zzw-226@8g6-y8r-z75,Marlow's Tavern,Marlow's Tavern,34.060267,-84.381243,"American Food,Bar or Pub,Casual Dining,Dinner,Drinks,Lunch",,
222-222@8g6-yjh-td9,The Mansion Elan,,33.86485,-84.307593,"Dance Club,Late Night",,2022-09
22q-223@8gd-q2p-6c5,Brewed,,32.058634,-81.094545,"Bar or Pub,Coffee Shop,Late Night,Sandwich Shop",,2021-10
223-223@8g7-4cj-2zf,Game Changer Sports Bar,,33.888662,-84.472041,"Bar or Pub,Late Night,Sports Bar",,
zzw-22b@8g6-yfv-tqf,Marlow's Tavern,Marlow's Tavern,34.154885,-84.176931,"American Food,Bar or Pub,Casual Dining,Dinner,Drinks,Lunch",,
22r-222@8gb-qzp-8vz,Cartecay Wine & Craft,,34.694577,-84.482554,"Bar or Pub,Late Night,Wine Bar",,
222-222@8g7-485-9zz,JavaVino,,33.770118,-84.352247,"Bar or Pub,Coffee Shop,Late Night,Wine Bar",,
222-223@8g7-477-whq,Red Ciroc Bar,,33.699837,-84.35354,"Bar or Pub,Late Night",,
242-224@8g7-46m-vs5,M Bar Ultra Lounge,,33.755765,-84.381599,"Bar or Pub,Cocktail Lounge,Late Night,Wine Bar",,2022-07
224-222@8g7-3yp-c5z,Club 291,,33.696364,-84.487226,"Bar or Pub,Late Night",,
222-222@8g6-ym4-yvz,BJ Roosters,,33.811333,-84.356029,"Bar or Pub,Gay Bar,Late Night",,
zzw-222@8g7-2p4-b49,Southern Comfort Sports Bar,,33.922138,-84.01849,"Bar or Pub,Late Night,Sports Bar",,2020-01
223-222@8g7-479-v2k,E Villa,,33.768007,-84.38495,"Bar or Pub,Cocktail Lounge,Ethiopian Food,Hookah,Late Night",,2022-12
22b-222@8g6-xmy-7yv,Southern Roots Tavern & Eatery,,33.447277,-84.147488,"Bar or Pub,Late Night,Music Venue",,
22k-222@8gn-jd2-3dv,Hitch N Rail,,32.490936,-84.969598,"Bar or Pub,Late Night",,
227-222@8gb-6yq-jvz,The Daily Draft Tap Room and Bar,,34.100972,-84.519834,"Bar or Pub,Late Night,Sports Bar",,
223-222@8g6-ysc-sdv,Dumpster Sports Bar and Grill,,33.904436,-84.154688,"Bar or Pub,Late Night,Sports Bar",,2020-01
223-222@8gn-jbh-mkz,The Hooch,,32.466256,-84.993687,"Bar or Pub,Late Night",,
zzw-222@8gd-q2q-75z,Roof Top Bar,,32.084105,-81.097532,"Bar or Pub,Late Night",,
zzw-223@8g6-yfv-kj9,Sip Kitchen & Wine Bar,,34.152438,-84.174656,"American Food,Bar or Pub,Late Night,Wine Bar",,2020-01
227-222@8g7-86g-9s5,Bar West Martini Lounge,,33.491364,-82.074431,"Bar or Pub,Cocktail Lounge,Karaoke,Late Night",,2022-08
zzw-223@8g7-njn-d9z,9d's Bar,,33.958545,-83.373876,"Bar or Pub,Dive Bar,Late Night",,
222-228@8g7-46k-dvz,The Cockpit,,33.741821,-84.368544,"Bar or Pub,Late Night",,2020-01
zzw-222@8g6-x46-7h5,The Pointe,,33.66563,-84.016897,"Bar or Pub,Late Night",,
222-224@8g6-ybf-zj9,Fire Lounge,,34.039132,-84.054699,"Bar or Pub,Hookah,Late Night",,
222-222@8g7-478-dsq,V Live Atlanta,,33.789491,-84.428187,Late Night,,2022-09
222-222@8gb-7gh-g8v,Runaround Sue's,,33.976855,-84.555143,"Bar or Pub,Late Night",,2022-04
zzw-222@8g7-479-wx5,Community Smith,,33.778214,-84.388289,"American Food,Bar or Pub,Cocktail Lounge,Late Night",,2021-10
222-222@8g6-x8s-rtv,My Parents' Basement,,33.775601,-84.272346,"Arcades,Bar or Pub,Late Night",,
zzw-222@8gb-5jg-rzf,Herring Frank,,34.03135,-85.07039,Late Night,,
222-225@8g6-ssk-w6k,Cornerstone,,32.556719,-83.663709,"Bar or Pub,Cocktail Lounge,Late Night",,
zzw-222@8g8-4zc-zmk,Bahama Bob's,,32.496486,-83.730228,"American Food,Bar or Pub,Karaoke,Late Night",,2022-12
222-222@8g6-ym4-mff,Tattletale Lounge,,33.811867,-84.366401,"Adult Entertainment,Bar or Pub,Late Night",,
223-223@8g7-46r-bzf,The Social House,,33.755699,-84.377344,"Bar or Pub,Cocktail Lounge,Late Night",,
222-222@8g7-46m-whq,Sleazy & Zino Bistro & Bar,,33.759393,-84.384431,"Bar or Pub,Late Night",,2020-01
zzy-222@8gd-q5y-6x5,Tybee Time Sports Bar,,31.991526,-80.847432,"Bar or Pub,Late Night,Sports Bar",,
222-224@8g7-3zz-pd9,SandTown Pub,,33.699659,-84.578333,"Bar or Pub,Late Night",,
224-222@8g7-46z-6ff,Lava Lounge,,33.785497,-84.385704,"Bar or Pub,Cocktail Lounge,Dance Club,Late Night",,2022-07
224-223@8g6-ymt-ysq,Pegasus Restaurant and Lounge,,33.843071,-84.326986,"Bar or Pub,Caribbean Food,Cocktail Lounge,Hookah,Late Night",,2021-10
225-222@8g7-njj-kpv,Normal Bar,,33.96336,-83.401377,"Bar or Pub,Late Night",,
224-222@8g6-ykx-bhq,Creative Visuals,,33.826553,-84.36772,Late Night,,
226-222@8g9-zfk-ysq,Cafe 293 West,,34.238199,-84.945547,Cafe,,2020-01
229-222@8g6-t89-3nq,The Hummingbird Stage And Taproom,,32.834823,-83.626737,"Bar or Pub,Late Night,Music Venue",,
228-222@8g7-2q3-q75,Exhibit Ale Grayson,,33.893416,-83.955336,"Bar or Pub,Late Night",,
228-222@8gd-q2q-c89,Lulu's Chocolate Bar,,32.080722,-81.096919,"Bar or Pub,Catering,Cocktail Lounge,Dessert,Late Night",,
224-222@8g6-t7z-hh5,Back Porch Too Lounge,,32.868797,-83.659228,"Bar or Pub,Cocktail Lounge,Late Night",,
zzw-222@8g7-453-kj9,Uniq Lounge,,33.746414,-84.699927,"American Food,Bar or Pub,Hookah,Late Night",,2022-12
zzw-223@8gd-q2q-8jv,Electric Moon Skytop Lounge Moon Deck,,32.083232,-81.095038,"Bar or Pub,Cocktail Lounge,Late Night",,
222-222@8gn-jcr-y7q,Cat Walk,,32.517744,-84.966424,Late Night,,2020-01
222-222@8g6-ym2-f2k,Rush Lounge,,33.828106,-84.345667,"Dance Club,Late Night",,2020-01
223-223@8g7-4qr-8gk,Crazy Horse,,33.625984,-84.39898,Late Night,,
222-222@8gd-q7b-5cq,Cheers To You,,32.013452,-80.988161,"Bar or Pub,Cocktail Lounge,Late Night",,
22b-222@8g7-bfw-zvf,Sharifa's Hookah Bar And Lounge,,33.474444,-81.96467,"Bar or Pub,Cocktail Lounge,Dance Club,Hookah,Late Night",,
246-223@8g7-46z-6ff,High Note Rooftop Bar,,33.786159,-84.385888,"Bar or Pub,Late Night",,
223-223@8g7-njq-wzf,Five and Ten,,33.941594,-83.387256,"American Food,Bar or Pub,Dessert,Late Night",,
22g-222@8g6-ykx-jn5,Sahara Hookah Lounge,,33.836669,-84.377087,"Bar or Pub,Cocktail Lounge,Hookah,Late Night",,2023-01
222-222@8g6-yc4-jsq,Craze Tavern,,34.014197,-84.164815,"Bar or Pub,Karaoke,Late Night,Sports Bar",,2020-01
22h-222@8g7-njn-d9z,Centro Athens,,33.958716,-83.373933,"Bar or Pub,Late Night",,
223-223@8gb-78s-whq,Downtown Axe,,33.924219,-84.843072,"Axe Throwing,Bar or Pub,Late Night",,
222-222@8g7-ccb-n89,Swainsboro Moose Lodge No 1930,,32.581419,-82.320254,"Bar or Pub,Late Night",,
zzw-225@8g6-y45-gff,Pepperoni's Tavern,,34.059492,-84.234459,"Bar or Pub,Italian Food,Late Night,Pizza,Sports Bar",,
223-222@8g7-4ds-kpv,Blue Flame Lounge,,33.785268,-84.491104,"Adult Entertainment,Late Night",,
226-22k@8g6-ykz-7kf,Burn Social Club,,33.84316,-84.381044,"Bar or Pub,Cocktail Lounge,Dance Club,Late Night",,2020-01
zzy-223@8g6-t7f-dsq,Atlas Bar & Night Club,,32.846804,-83.689768,"Bar or Pub,Late Night",,
zzw-222@8g7-njj-hbk,Hi Lo Lounge,,33.963653,-83.400906,"Bar or Pub,Cocktail Lounge,Late Night",,
29s-226@8g7-475-brk,Saltyard,,33.804767,-84.394307,"Asian Food,Bar or Pub,Cocktail Lounge,Late Night,Tapas",,2020-11
zzw-228@8gm-jp3-7wk,Idle Hour,,33.03787,-85.032344,"Bar or Pub,Late Night",,2020-01
224-222@8gd-p4z-rzf,Sugar Magnolia Bakery & Cafe,,32.447918,-81.779925,"American Food,Bakery,Bar or Pub,Late Night",,
zzw-222@8g6-ymg-jy9,Cigar City Atlanta,,33.891194,-84.381707,"Bar or Pub,Cigars,Late Night",,2020-02
226-222@8g6-yjg-zzz,Tenacity,,33.868751,-84.355815,Late Night,,
225-222@8g7-46m-wx5,Pal's Lounge,,33.755737,-84.379323,"Bar or Pub,Cocktail Lounge,Dive Bar,Jazz and Blues,Late Night",,
zzw-227@8g7-njh-zfz,The Max Canada,,33.958326,-83.379233,"Bar or Pub,Dive Bar,Late Night",,2021-10
223-223@8g6-yjw-snq,Moondog Growlers,,33.938122,-84.380714,"Bar or Pub,Late Night",,
228-222@8g6-x3p-cbk,Luxor Lounge,,33.711588,-84.106414,"Bar or Pub,Cocktail Lounge,Late Night",,
224-223@8gn-jcc-dgk,Mickey's Pub,,32.464056,-84.925393,"Bar or Pub,Karaoke,Late Night",,2021-10
224-222@8g6-yjw-8qf,Flashers,,33.930361,-84.379949,Late Night,,2020-01
zzw-225@8g6-y4v-cwk,Atlanta Pool Leagues,,34.054102,-84.33605,"Late Night,Pool and Billiards",,
zzw-222@8gb-3bg-ht9,Canton Icehouse,,34.25453,-84.463103,"American Food,Bar or Pub,Dance Club,Late Night,Sports Bar",,
227-222@8gj-g6r-z75,809 Bar & Grill,,31.614507,-84.219334,"Bar or Pub,Late Night,Music Venue,Sports Bar",,
224-222@8g7-46s-nt9,Ideal Sportsbar,,33.702799,-84.38455,"Bar or Pub,Late Night,Sports Bar",,
zzw-229@8gd-qbw-435,Spankys,,32.080484,-81.086663,"Bar or Pub,Late Night",,
zzw-223@8g7-42m-vxq,Central Station Sports Cafe,,33.623013,-84.477169,"Bar or Pub,Late Night,Sports Bar",,2023-02
287-222@8g7-46n-8vz,This Place In Atl,,33.751731,-84.398307,"Bar or Pub,Hookah,Late Night",,2021-10
224-222@8g7-3z4-4n5,Trapeze,,33.76124,-84.533339,Late Night,,
22b-222@8g7-bf3-mp9,The Indian Queen,,33.468535,-82.028709,"Bar or Pub,Late Night",,
224-222@8gb-268-wrk,Spinning Room,,34.783317,-84.973772,"American Food,Bar or Pub,Late Night,Wine Bar",,
224-222@8g7-2cq-yy9,Blakes of Braselton,,34.108167,-83.763296,"American Food,Bar or Pub,Late Night,Tapas,Wine Bar",,
zzw-222@8g7-47m-789,The Exclusive,,33.747038,-84.307277,"Bar or Pub,Cigars,Late Night",,2022-07
zzw-222@8g6-ysc-skf,Cowboys,,33.904389,-84.154609,"Bar or Pub,Late Night",,2022-12
zzw-22c@8g6-y3p-75z,Yates Sports Pub,,34.025874,-84.250036,"Bar or Pub,Late Night,Sports Bar",,2020-01
22f-222@8gd-qbw-33q,Nightly Spirits Savannah,,32.078343,-81.090248,"Bar or Pub,Late Night",,
224-222@8gj-6rb-9j9,Rum Runner Sports Bar,,30.896124,-83.32116,"Bar or Pub,Karaoke,Late Night,Sports Bar",,
223-222@8g7-489-mp9,Pleasers,,33.681817,-84.416872,Late Night,,2021-10
223-222@8g6-ytw-dsq,El Boulevard Sportsbar,,33.896632,-84.195448,"Bar or Pub,Late Night,Sports Bar",,2020-08
zzw-222@8gj-6tp-6x5,Craft On Draft,,30.872313,-83.288896,"Bar or Pub,Beer Garden,Late Night",,2020-01
225-222@8g6-x47-2kz,Classic Billiards,,33.658661,-84.023538,"Late Night,Pool and Billiards",,2019-12
222-222@8gn-j7d-jn5,Homer's Lounge,,32.406166,-84.936109,"Bar or Pub,Cocktail Lounge,Late Night",,2020-01
zzw-224@8g6-y3b-7dv,Mercantile Social,,34.07611,-84.294795,"Bar or Pub,Cocktail Lounge,Late Night,Music Venue,Tapas",,
2cn-226@8g7-46z-ffz,The Ballroom,,33.791517,-84.398116,"Bar or Pub,Cocktail Lounge,Late Night",,
222-222@8g7-bf5-4y9,Blue Top Lounge,,33.456416,-81.983511,"Bar or Pub,Cocktail Lounge,Late Night",,
222-223@8g6-yf9-rtv,HI Tops Sports Bar,,34.247441,-84.305829,"Bar or Pub,Late Night,Music Venue,Sports Bar",,2022-10
222-222@8g6-ym5-rc5,The Anchor Bar & Tattoo Studio,,33.808061,-84.366303,"American Food,Bar or Pub,Cocktail Lounge,Hookah,Late Night",,2020-01
22n-222@8g7-46n-vzz,Mary's,,33.739965,-84.345539,"Bar or Pub,Gay Bar,Late Night",,
22c-222@8g7-484-xqz,Big Game,,33.765727,-84.364129,"Bar or Pub,Late Night,Sports Bar",,
222-222@8g6-ssk-2ff,Roco's Bar,,32.555156,-83.655478,"Bar or Pub,Late Night",,
zzw-223@8gj-6tv-hqz,Ashley Street Station,,30.846383,-83.298546,"Bar or Pub,Dive Bar,Late Night",,
225-222@8g7-bf6-nkf,Downtown Club,,33.474182,-82.002351,Late Night,,
zzy-222@8g6-zqs-s5z,Roosters Drive Inn,,33.519039,-83.734753,"American Food,BBQ and Southern Food,Karaoke,Late Night",,
225-222@8g7-njj-2rk,Blue Sky,,33.958141,-83.375158,"Bar or Pub,Late Night",,
zzw-222@8g7-48t-4sq,Nineteen96 Restaurant And Lounge,,33.752611,-84.402278,"Bar or Pub,Cocktail Lounge,Late Night",,
227-222@8g6-ysj-2x5,Marlow's Tavern,Marlow's Tavern,33.97939,-84.214211,"American Food,Bar or Pub,Casual Dining,Dinner,Drinks,Lunch",,
224-222@8g7-4rh-7qz,New Orleans Daquiri,,33.607481,-84.471765,"Bar or Pub,Late Night,Seafood",,
22d-222@8g7-47g-f75,Taproom Coffee,,33.751578,-84.323289,"Bar or Pub,Coffee Shop,Late Night",,
zzw-222@8g7-4fd-zpv,Studio Cigar Lounge,,33.539122,-84.574987,"Bar or Pub,Cocktail Lounge,Late Night",,
zzw-226@8g6-ymh-d35,Marlow's Tavern,Marlow's Tavern,33.907403,-84.37984,"American Food,Bar or Pub,Casual Dining,Dinner,Drinks,Lunch",,2021-10
zzw-224@8g7-2pd-3yv,Hookah,,33.975077,-84.078769,"Bar or Pub,Hookah,Late Night",,
228-222@8g6-ytw-xdv,Impulse Karaoke,,33.883172,-84.192406,"Bar or Pub,Cocktail Lounge,Hookah,Karaoke,Late Night",,
zzw-222@8g7-46n-w6k,The Midway Pub,,33.739472,-84.344203,"Bar or Pub,Late Night",,
222-223@8g7-47b-mkz,The Social Lounge,,33.759932,-84.383942,"Bar or Pub,Cocktail Lounge,Dance Club,Late Night",,
222-223@8g7-4rt-6tv,Rose Gold Bar & Lounge,,33.543285,-84.39997,"BBQ and Southern Food,Bar or Pub,Cocktail Lounge,Late Night",,2022-04
zzw-222@8g6-x94-p7q,Lavish Bistro ATL,,33.761078,-84.249676,"Bar or Pub,Dance Club,Late Night",,
zzw-222@8gd-q4h-9pv,Wet Willie's Franchise,,31.985637,-81.15171,"Bar or Pub,Late Night",,2020-01
224-222@8gb-4gd-9xq,La Dona Night Club,,34.764727,-84.95693,"Dance Club,Late Night",,
22h-222@8g6-y3b-5vf,Butcher & Brew,,34.075365,-84.29487,"American Food,Bar or Pub,Late Night",,
zzy-222@8gd-nd3-g6k,Blu Diamond Lounge,,32.149333,-81.516893,"American Food,Bar or Pub,Cocktail Lounge,Late Night,Sports Bar",,2023-01
223-222@8g6-ykz-6x5,Kramer's Buckhead,,33.841554,-84.378567,"Bar or Pub,Late Night",,2022-10
223-222@8gb-q5w-8n5,Pier 29 On Lanier,,34.259877,-83.959109,"Bar or Pub,Late Night",,2020-01
zzw-222@8g6-x53-k4v,Corks And Cuvee,,33.617315,-84.081413,"Bar or Pub,Late Night",,
227-222@8g6-t7t-qvf,Billy's Clubhouse,,32.898346,-83.703452,"Bar or Pub,Dive Bar,Late Night",,
22f-222@8g7-46q-9xq,Hazel Jane's,,33.753848,-84.365673,"American Food,Bar or Pub,Late Night,Wine Bar",,2021-10
zzw-224@8g7-47b-hnq,Members Only Lounge,,33.763934,-84.382812,"Bar or Pub,Cocktail Lounge,Late Night",,2022-08
224-227@8g7-479-zs5,Square Bar,,33.777025,-84.388957,"Bar or Pub,Late Night",,
22n-222@8g7-njj-2kz,Woodford Athens,,33.95886,-83.376881,"Bar or Pub,Late Night",,
229-222@8gd-qbh-s3q,Flajae's,,32.055464,-81.082927,"Bar or Pub,Late Night,Sports Bar",,2021-11
zzw-228@8g7-njh-zj9,The Rook & Pawn,,33.959044,-83.380196,"Bar or Pub,Coffee Shop,Late Night,Sandwich Shop",,
223-222@8g7-478-p7q,Compound,,33.78254,-84.414264,"Dance Club,Late Night",,
zzw-228@8g7-4br-835,The Stout Brothers,,33.883778,-84.51534,"Bar or Pub,Late Night",,
223-222@8g6-x8t-nkf,Pin Ups,,33.778982,-84.276893,"Adult Entertainment,Late Night",,
224-222@8gb-7gv-5j9,The Nest Kennesaw,,34.024795,-84.612058,"BBQ and Southern Food,Beer Garden,Chicken Wings,Late Night",,
22b-222@8g7-46r-bzf,Black Sheep Tavern & Oyster Room,,33.754618,-84.376843,"Bar or Pub,Late Night",,2021-10
223-223@8gj-6tn-zpv,Shots Billiards,,30.865189,-83.284677,"Bar or Pub,Chicken Wings,Late Night,Pool and Billiards,Sports Bar",,2020-01
222-222@8g7-46r-ct9,Paper Crane Lounge,,33.754115,-84.369888,"Bar or Pub,Cocktail Lounge,Late Night",,2022-07
223-222@8g6-ym4-xdv,Onyx,,33.81051,-84.361122,Late Night,,
222-222@8gd-n7k-dy9,Little Lucky's Pub Hotel Bar Savannah,,32.006208,-81.278234,"Bar or Pub,Karaoke,Late Night,Sports Bar",,
226-222@8g6-x6x-g49,The Place Hookah,,33.76472,-84.221431,"Bar or Pub,Coffee Shop,Hookah,Late Night,Smoothie & Juice Bar",,
22j-222@8g7-bfw-j9z,Playground bar,,33.476264,-81.969435,"Bar or Pub,Late Night",,2022-03
226-222@8g7-46y-rhq,House of Hookah,,33.78589,-84.400439,"Bar or Pub,Hookah,Late Night",,
224-223@8gp-4z2-h5z,Seagles Saloon,,30.720531,-81.548794,"Bar or Pub,Dive Bar,Late Night",,2020-09
222-222@8g6-ycf-gx5,Falling Rabbit,,34.003835,-84.145176,"American Food,Bar or Pub,Cocktail Lounge,Late Night,Wine Bar",,
227-222@8g7-83s-m6k,Stay Social Tap And Table,,33.543753,-82.129648,"Bar or Pub,Coffee Shop,Late Night,Tapas",,2023-01
223-223@8g7-4hr-m6k,Nak's Country Kitchen and Sports Bar,,33.529323,-84.661653,"BBQ and Southern Food,Bar or Pub,Late Night,Sports Bar",,2020-01
222-222@8g6-vcr-jn5,Hideaway,,32.528266,-82.86881,"Bar or Pub,Late Night",,
22r-222@8g6-ydw-9zz,Nido Cafe,,34.183528,-84.218745,"Bar or Pub,Coffee Shop,Late Night,Tapas,Wine Bar",,
223-222@8gj-52q-swk,Woods Club,,30.804572,-83.987432,Late Night,,
222-222@8g7-4qp-ht9,JB's Billiards and Bar,,33.642657,-84.361428,"American Food,Bar or Pub,Dive Bar,Late Night,Pool and Billiards",,
224-222@8gd-q2n-kvf,Totally Awesome Bar,,32.079051,-81.093312,"Arcades,Bar or Pub,Late Night,Pool and Billiards",,
zzw-226@8g6-t85-r6k,Roasted Cafe & Lounge,,32.836141,-83.62914,"Bar or Pub,Coffee Shop,Dive Bar,Late Night,Sandwich Shop",,2020-01
227-223@8g7-474-p9z,Dnovus Atlanta,,33.793543,-84.386001,Late Night,,
222-222@8g7-bfw-k75,The Scene,,33.478882,-81.974817,"Dance Club,Late Night",,
222-222@8g7-448-qs5,Marlene's,,33.795488,-84.621193,Late Night,,
223-222@8gm-jqg-94v,Commotions,,33.06816,-85.027636,"Dance Club,Late Night",,
223-222@8g6-ykc-9s5,Charlie's Place,,33.864919,-84.286392,"Bar or Pub,Late Night",,
224-224@8g6-y3b-5vf,Truck & Tap Alpharetta,,34.075451,-84.29554,"Bar or Pub,Late Night,Truck or Cart",,
22g-222@8g6-y4w-mff,Salt Factory Pub,,34.024575,-84.361708,"American Food,Bar or Pub",,
226-222@8g7-njj-2x5,Georgia Bar,,33.957992,-83.377387,"Bar or Pub,Dive Bar,Late Night",,2020-01
227-222@8gd-q2q-bzf,Congress Street Up,,32.080623,-81.094899,"Bar or Pub,Cocktail Lounge,Late Night",,
22j-222@8g6-yjd-tgk,Pour Kitchen Bar,,33.860981,-84.331204,"American Food,Bar or Pub,Late Night,Wine Bar",,2022-12
